[{"LATITUDE":-38.1527780434,"LOCALITY_NAME":"LANGWARRIN","LONGITUDE":145.195746709,"POSTCODE":3910,"STATE_CODE":"VIC"},{"LATITUDE":-37.6839496947,"LOCALITY_NAME":"BROADMEADOWS","LONGITUDE":144.9268405392,"POSTCODE":3047,"STATE_CODE":"VIC"},{"LATITUDE":-36.7732191578,"LOCALITY_NAME":"GOLDEN SQUARE","LONGITUDE":144.25113427,"POSTCODE":3555,"STATE_CODE":"VIC"},{"LATITUDE":-37.8811218654,"LOCALITY_NAME":"GLEN WAVERLEY","LONGITUDE":145.1654141603,"POSTCODE":3150,"STATE_CODE":"VIC"},{"LATITUDE":-37.7759464995,"LOCALITY_NAME":"MARIBYRNONG","LONGITUDE":144.8891968606,"POSTCODE":3032,"STATE_CODE":"VIC"},{"LATITUDE":-37.8197169913,"LOCALITY_NAME":"BOX HILL","LONGITUDE":145.1237647252,"POSTCODE":3128,"STATE_CODE":"VIC"},{"LATITUDE":-37.7435280372,"LOCALITY_NAME":"ST ALBANS","LONGITUDE":144.8043240642,"POSTCODE":3021,"STATE_CODE":"VIC"},{"LATITUDE":-37.8309461585,"LOCALITY_NAME":"TRUGANINA","LONGITUDE":144.7211490573,"POSTCODE":3029,"STATE_CODE":"VIC"},{"LATITUDE":-38.1267320481,"LOCALITY_NAME":"CLYDE","LONGITUDE":145.3358125286,"POSTCODE":3978,"STATE_CODE":"VIC"},{"LATITUDE":-37.5423304462,"LOCALITY_NAME":"MICKLEHAM","LONGITUDE":144.8999709072,"POSTCODE":3064,"STATE_CODE":"VIC"},{"LATITUDE":-38.0777021185,"LOCALITY_NAME":"CRANBOURNE NORTH","LONGITUDE":145.2999849372,"POSTCODE":3977,"STATE_CODE":"VIC"},{"LATITUDE":-37.7222336493,"LOCALITY_NAME":"MACLEOD","LONGITUDE":145.0718248027,"POSTCODE":3085,"STATE_CODE":"VIC"},{"LATITUDE":-37.7855580977,"LOCALITY_NAME":"DONCASTER","LONGITUDE":145.1243902473,"POSTCODE":3108,"STATE_CODE":"VIC"},{"LATITUDE":-36.1322242443,"LOCALITY_NAME":"WODONGA","LONGITUDE":146.8851011903,"POSTCODE":3690,"STATE_CODE":"VIC"},{"LATITUDE":-37.4561778056,"LOCALITY_NAME":"RIDDELLS CREEK","LONGITUDE":144.6804211265,"POSTCODE":3431,"STATE_CODE":"VIC"},{"LATITUDE":-37.8571648347,"LOCALITY_NAME":"ARMADALE","LONGITUDE":145.0196583763,"POSTCODE":3143,"STATE_CODE":"VIC"},{"LATITUDE":-37.4757612351,"LOCALITY_NAME":"BEVERIDGE","LONGITUDE":144.9594302812,"POSTCODE":3753,"STATE_CODE":"VIC"},{"LATITUDE":-37.8950584142,"LOCALITY_NAME":"MURRUMBEENA","LONGITUDE":145.0699763709,"POSTCODE":3163,"STATE_CODE":"VIC"},{"LATITUDE":-38.1567604877,"LOCALITY_NAME":"CLIFTON SPRINGS","LONGITUDE":144.5689117319,"POSTCODE":3222,"STATE_CODE":"VIC"},{"LATITUDE":-36.8895965873,"LOCALITY_NAME":"HARRIETVILLE","LONGITUDE":147.0649772258,"POSTCODE":3741,"STATE_CODE":"VIC"},{"LATITUDE":-37.6532251205,"LOCALITY_NAME":"DARLEY","LONGITUDE":144.4317307269,"POSTCODE":3340,"STATE_CODE":"VIC"},{"LATITUDE":-38.1028312428,"LOCALITY_NAME":"CRANBOURNE","LONGITUDE":145.2769382264,"POSTCODE":3977,"STATE_CODE":"VIC"},{"LATITUDE":-37.3519327179,"LOCALITY_NAME":"ROMSEY","LONGITUDE":144.7392864132,"POSTCODE":3434,"STATE_CODE":"VIC"},{"LATITUDE":-37.284607644,"LOCALITY_NAME":"CARLSRUHE","LONGITUDE":144.5153621522,"POSTCODE":3442,"STATE_CODE":"VIC"},{"LATITUDE":-38.2585645626,"LOCALITY_NAME":"OCEAN GROVE","LONGITUDE":144.5343160812,"POSTCODE":3226,"STATE_CODE":"VIC"},{"LATITUDE":-37.7839029328,"LOCALITY_NAME":"FITZROY NORTH","LONGITUDE":144.9833831508,"POSTCODE":3068,"STATE_CODE":"VIC"},{"LATITUDE":-36.6626770541,"LOCALITY_NAME":"NURCOUNG","LONGITUDE":141.6605049641,"POSTCODE":3401,"STATE_CODE":"VIC"},{"LATITUDE":-37.4023805156,"LOCALITY_NAME":"MOUNT MACEDON","LONGITUDE":144.589160696,"POSTCODE":3441,"STATE_CODE":"VIC"},{"LATITUDE":-34.1689593944,"LOCALITY_NAME":"MERBEIN","LONGITUDE":142.0570537106,"POSTCODE":3505,"STATE_CODE":"VIC"},{"LATITUDE":-37.7211134816,"LOCALITY_NAME":"KEILOR PARK","LONGITUDE":144.8548002251,"POSTCODE":3042,"STATE_CODE":"VIC"},{"LATITUDE":-37.8148831731,"LOCALITY_NAME":"SWAN REACH","LONGITUDE":147.8631033789,"POSTCODE":3903,"STATE_CODE":"VIC"},{"LATITUDE":-37.9188490454,"LOCALITY_NAME":"CLAYTON","LONGITUDE":145.1260106743,"POSTCODE":3168,"STATE_CODE":"VIC"},{"LATITUDE":-37.8973036808,"LOCALITY_NAME":"POINT COOK","LONGITUDE":144.7437123146,"POSTCODE":3030,"STATE_CODE":"VIC"},{"LATITUDE":-37.5989156102,"LOCALITY_NAME":"MERNDA","LONGITUDE":145.0848037189,"POSTCODE":3754,"STATE_CODE":"VIC"},{"LATITUDE":-37.8068791453,"LOCALITY_NAME":"BOX HILL NORTH","LONGITUDE":145.1287599116,"POSTCODE":3129,"STATE_CODE":"VIC"},{"LATITUDE":-38.1870462832,"LOCALITY_NAME":"ST ALBANS PARK","LONGITUDE":144.3920243398,"POSTCODE":3219,"STATE_CODE":"VIC"},{"LATITUDE":-37.4624923845,"LOCALITY_NAME":"NEW GISBORNE","LONGITUDE":144.6030265286,"POSTCODE":3438,"STATE_CODE":"VIC"},{"LATITUDE":-37.8601553757,"LOCALITY_NAME":"WILLIAMS LANDING","LONGITUDE":144.7433492764,"POSTCODE":3027,"STATE_CODE":"VIC"},{"LATITUDE":-38.2032249547,"LOCALITY_NAME":"GROVEDALE","LONGITUDE":144.3327300458,"POSTCODE":3216,"STATE_CODE":"VIC"},{"LATITUDE":-38.234251523,"LOCALITY_NAME":"CAMPERDOWN","LONGITUDE":143.1442899887,"POSTCODE":3260,"STATE_CODE":"VIC"},{"LATITUDE":-37.4106948944,"LOCALITY_NAME":"WALLAN","LONGITUDE":144.9806970528,"POSTCODE":3756,"STATE_CODE":"VIC"},{"LATITUDE":-36.1594921474,"LOCALITY_NAME":"CHILTERN","LONGITUDE":146.6076074488,"POSTCODE":3683,"STATE_CODE":"VIC"},{"LATITUDE":-37.762821993,"LOCALITY_NAME":"BRUNSWICK WEST","LONGITUDE":144.94312306,"POSTCODE":3055,"STATE_CODE":"VIC"},{"LATITUDE":-37.185162306,"LOCALITY_NAME":"AMPHITHEATRE","LONGITUDE":143.4027407016,"POSTCODE":3468,"STATE_CODE":"VIC"},{"LATITUDE":-38.001017198,"LOCALITY_NAME":"MORDIALLOC","LONGITUDE":145.0930724718,"POSTCODE":3195,"STATE_CODE":"VIC"},{"LATITUDE":-37.2454978493,"LOCALITY_NAME":"KYNETON","LONGITUDE":144.4568659919,"POSTCODE":3444,"STATE_CODE":"VIC"},{"LATITUDE":-37.3600562719,"LOCALITY_NAME":"WOODEND","LONGITUDE":144.5295402183,"POSTCODE":3442,"STATE_CODE":"VIC"},{"LATITUDE":-36.6225518496,"LOCALITY_NAME":"GOORNONG","LONGITUDE":144.4993155208,"POSTCODE":3557,"STATE_CODE":"VIC"},{"LATITUDE":-37.7650471308,"LOCALITY_NAME":"SUNSHINE NORTH","LONGITUDE":144.8357001767,"POSTCODE":3020,"STATE_CODE":"VIC"},{"LATITUDE":-37.9921423227,"LOCALITY_NAME":"PARKDALE","LONGITUDE":145.0805088541,"POSTCODE":3195,"STATE_CODE":"VIC"},{"LATITUDE":-37.8702364473,"LOCALITY_NAME":"BALACLAVA","LONGITUDE":144.995245496,"POSTCODE":3183,"STATE_CODE":"VIC"},{"LATITUDE":-37.8919900873,"LOCALITY_NAME":"CARNEGIE","LONGITUDE":145.0562039852,"POSTCODE":3163,"STATE_CODE":"VIC"},{"LATITUDE":-37.2518622498,"LOCALITY_NAME":"PIPERS CREEK","LONGITUDE":144.5442704711,"POSTCODE":3444,"STATE_CODE":"VIC"},{"LATITUDE":-38.0713799869,"LOCALITY_NAME":"PAKENHAM","LONGITUDE":145.4756751597,"POSTCODE":3810,"STATE_CODE":"VIC"},{"LATITUDE":-37.6772702568,"LOCALITY_NAME":"WESTMEADOWS","LONGITUDE":144.8912035036,"POSTCODE":3049,"STATE_CODE":"VIC"},{"LATITUDE":-38.5370956738,"LOCALITY_NAME":"LORNE","LONGITUDE":143.9751334675,"POSTCODE":3232,"STATE_CODE":"VIC"},{"LATITUDE":-38.2284859157,"LOCALITY_NAME":"SOMERVILLE","LONGITUDE":145.177143982,"POSTCODE":3912,"STATE_CODE":"VIC"},{"LATITUDE":-38.1069452443,"LOCALITY_NAME":"BELL PARK","LONGITUDE":144.3372243091,"POSTCODE":3215,"STATE_CODE":"VIC"},{"LATITUDE":-38.1806767711,"LOCALITY_NAME":"MOE","LONGITUDE":146.256634801,"POSTCODE":3825,"STATE_CODE":"VIC"},{"LATITUDE":-37.6725473623,"LOCALITY_NAME":"DIAMOND CREEK","LONGITUDE":145.1541308116,"POSTCODE":3089,"STATE_CODE":"VIC"},{"LATITUDE":-38.6334754961,"LOCALITY_NAME":"INVERLOCH","LONGITUDE":145.721683996,"POSTCODE":3996,"STATE_CODE":"VIC"},{"LATITUDE":-37.1498933315,"LOCALITY_NAME":"LAMPLOUGH","LONGITUDE":143.5197475641,"POSTCODE":3352,"STATE_CODE":"VIC"},{"LATITUDE":-38.7149661418,"LOCALITY_NAME":"FISH CREEK","LONGITUDE":146.0883715401,"POSTCODE":3959,"STATE_CODE":"VIC"},{"LATITUDE":-38.1946932653,"LOCALITY_NAME":"TRARALGON","LONGITUDE":146.531862608,"POSTCODE":3844,"STATE_CODE":"VIC"},{"LATITUDE":-38.1097793224,"LOCALITY_NAME":"SEAFORD","LONGITUDE":145.1367026599,"POSTCODE":3198,"STATE_CODE":"VIC"},{"LATITUDE":-36.7295137172,"LOCALITY_NAME":"BRIGHT","LONGITUDE":146.9638701465,"POSTCODE":3741,"STATE_CODE":"VIC"},{"LATITUDE":-37.8231017914,"LOCALITY_NAME":"HAWTHORN","LONGITUDE":145.0327105506,"POSTCODE":3122,"STATE_CODE":"VIC"},{"LATITUDE":-37.9187005191,"LOCALITY_NAME":"LYSTERFIELD","LONGITUDE":145.2805982034,"POSTCODE":3156,"STATE_CODE":"VIC"},{"LATITUDE":-37.326878773,"LOCALITY_NAME":"WOODEND NORTH","LONGITUDE":144.5290882851,"POSTCODE":3442,"STATE_CODE":"VIC"},{"LATITUDE":-37.7497889303,"LOCALITY_NAME":"ESSENDON","LONGITUDE":144.91173708,"POSTCODE":3040,"STATE_CODE":"VIC"},{"LATITUDE":-37.9806209517,"LOCALITY_NAME":"DINGLEY VILLAGE","LONGITUDE":145.1275243586,"POSTCODE":3172,"STATE_CODE":"VIC"},{"LATITUDE":-38.1789755393,"LOCALITY_NAME":"BELMONT","LONGITUDE":144.3383579292,"POSTCODE":3216,"STATE_CODE":"VIC"},{"LATITUDE":-37.0361903016,"LOCALITY_NAME":"DROPMORE","LONGITUDE":145.4238144821,"POSTCODE":3660,"STATE_CODE":"VIC"},{"LATITUDE":-37.6959981165,"LOCALITY_NAME":"BUNDOORA","LONGITUDE":145.0612349079,"POSTCODE":3083,"STATE_CODE":"VIC"},{"LATITUDE":-36.524061421,"LOCALITY_NAME":"GAPSTED","LONGITUDE":146.6750692236,"POSTCODE":3737,"STATE_CODE":"VIC"},{"LATITUDE":-37.7822540504,"LOCALITY_NAME":"DONCASTER EAST","LONGITUDE":145.1620252277,"POSTCODE":3109,"STATE_CODE":"VIC"},{"LATITUDE":-37.9014223043,"LOCALITY_NAME":"OAKLEIGH","LONGITUDE":145.0949665545,"POSTCODE":3166,"STATE_CODE":"VIC"},{"LATITUDE":-37.7614536145,"LOCALITY_NAME":"AVONDALE HEIGHTS","LONGITUDE":144.8623135433,"POSTCODE":3034,"STATE_CODE":"VIC"},{"LATITUDE":-37.7397603495,"LOCALITY_NAME":"ESSENDON NORTH","LONGITUDE":144.9022711772,"POSTCODE":3041,"STATE_CODE":"VIC"},{"LATITUDE":-35.9226011022,"LOCALITY_NAME":"STRATHMERTON","LONGITUDE":145.4688744582,"POSTCODE":3641,"STATE_CODE":"VIC"},{"LATITUDE":-37.7414396582,"LOCALITY_NAME":"KEILOR EAST","LONGITUDE":144.8650802555,"POSTCODE":3033,"STATE_CODE":"VIC"},{"LATITUDE":-37.7771340437,"LOCALITY_NAME":"ASCOT VALE","LONGITUDE":144.9159051041,"POSTCODE":3032,"STATE_CODE":"VIC"},{"LATITUDE":-37.7239111725,"LOCALITY_NAME":"AIRPORT WEST","LONGITUDE":144.8821398897,"POSTCODE":3042,"STATE_CODE":"VIC"},{"LATITUDE":-37.8390405257,"LOCALITY_NAME":"SOUTH YARRA","LONGITUDE":144.992696117,"POSTCODE":3141,"STATE_CODE":"VIC"},{"LATITUDE":-37.7391779412,"LOCALITY_NAME":"NIDDRIE","LONGITUDE":144.8854070038,"POSTCODE":3042,"STATE_CODE":"VIC"},{"LATITUDE":-37.087192282,"LOCALITY_NAME":"AVOCA","LONGITUDE":143.474981703,"POSTCODE":3467,"STATE_CODE":"VIC"},{"LATITUDE":-37.6822156448,"LOCALITY_NAME":"THOMASTOWN","LONGITUDE":145.0128718279,"POSTCODE":3074,"STATE_CODE":"VIC"},{"LATITUDE":-36.7404050695,"LOCALITY_NAME":"NATIMUK","LONGITUDE":141.942245295,"POSTCODE":3409,"STATE_CODE":"VIC"},{"LATITUDE":-37.700909201,"LOCALITY_NAME":"GREENSBOROUGH","LONGITUDE":145.1063251493,"POSTCODE":3088,"STATE_CODE":"VIC"},{"LATITUDE":-37.8540643795,"LOCALITY_NAME":"WINDSOR","LONGITUDE":144.9918767613,"POSTCODE":3181,"STATE_CODE":"VIC"},{"LATITUDE":-37.7915163393,"LOCALITY_NAME":"DONVALE","LONGITUDE":145.1844892548,"POSTCODE":3111,"STATE_CODE":"VIC"},{"LATITUDE":-37.5982208174,"LOCALITY_NAME":"DOREEN","LONGITUDE":145.125075317,"POSTCODE":3754,"STATE_CODE":"VIC"},{"LATITUDE":-37.4305301551,"LOCALITY_NAME":"BEAUFORT","LONGITUDE":143.3782611588,"POSTCODE":3373,"STATE_CODE":"VIC"},{"LATITUDE":-35.7319890613,"LOCALITY_NAME":"KERANG","LONGITUDE":143.922302116,"POSTCODE":3579,"STATE_CODE":"VIC"},{"LATITUDE":-38.4620315228,"LOCALITY_NAME":"CAPE SCHANCK","LONGITUDE":144.8967839431,"POSTCODE":3939,"STATE_CODE":"VIC"},{"LATITUDE":-37.7866638227,"LOCALITY_NAME":"BRAYBROOK","LONGITUDE":144.8540850244,"POSTCODE":3019,"STATE_CODE":"VIC"},{"LATITUDE":-37.9094597598,"LOCALITY_NAME":"WHEELERS HILL","LONGITUDE":145.1841544903,"POSTCODE":3150,"STATE_CODE":"VIC"},{"LATITUDE":-36.3594694597,"LOCALITY_NAME":"ROCHESTER","LONGITUDE":144.6986024845,"POSTCODE":3561,"STATE_CODE":"VIC"},{"LATITUDE":-37.753093167,"LOCALITY_NAME":"HEIDELBERG","LONGITUDE":145.0671783238,"POSTCODE":3084,"STATE_CODE":"VIC"},{"LATITUDE":-37.891538334,"LOCALITY_NAME":"GLEN HUNTLY","LONGITUDE":145.0418277844,"POSTCODE":3163,"STATE_CODE":"VIC"},{"LATITUDE":-37.8386918255,"LOCALITY_NAME":"CAMBERWELL","LONGITUDE":145.0724314875,"POSTCODE":3124,"STATE_CODE":"VIC"},{"LATITUDE":-37.8049258457,"LOCALITY_NAME":"KEW","LONGITUDE":145.0371671434,"POSTCODE":3101,"STATE_CODE":"VIC"},{"LATITUDE":-37.6518183273,"LOCALITY_NAME":"YARRA GLEN","LONGITUDE":145.3744021802,"POSTCODE":3775,"STATE_CODE":"VIC"},{"LATITUDE":-37.9211965009,"LOCALITY_NAME":"BENTLEIGH EAST","LONGITUDE":145.0660815514,"POSTCODE":3165,"STATE_CODE":"VIC"},{"LATITUDE":-37.8010048545,"LOCALITY_NAME":"CARLTON","LONGITUDE":144.9659177344,"POSTCODE":3053,"STATE_CODE":"VIC"},{"LATITUDE":-38.2297189541,"LOCALITY_NAME":"MORNINGTON","LONGITUDE":145.0477127552,"POSTCODE":3931,"STATE_CODE":"VIC"},{"LATITUDE":-35.8488080541,"LOCALITY_NAME":"QUAMBATOOK","LONGITUDE":143.5202111279,"POSTCODE":3540,"STATE_CODE":"VIC"},{"LATITUDE":-38.4564532665,"LOCALITY_NAME":"COWES","LONGITUDE":145.2311742114,"POSTCODE":3922,"STATE_CODE":"VIC"},{"LATITUDE":-38.0085639111,"LOCALITY_NAME":"PAKENHAM UPPER","LONGITUDE":145.5089561513,"POSTCODE":3810,"STATE_CODE":"VIC"},{"LATITUDE":-37.7187577791,"LOCALITY_NAME":"MONTMORENCY","LONGITUDE":145.1245451111,"POSTCODE":3094,"STATE_CODE":"VIC"},{"LATITUDE":-38.2475301377,"LOCALITY_NAME":"MOOROODUC","LONGITUDE":145.1180123334,"POSTCODE":3933,"STATE_CODE":"VIC"},{"LATITUDE":-37.5284827334,"LOCALITY_NAME":"CARDIGAN","LONGITUDE":143.7570941509,"POSTCODE":3352,"STATE_CODE":"VIC"},{"LATITUDE":-34.1324413893,"LOCALITY_NAME":"YELTA","LONGITUDE":142.0132087014,"POSTCODE":3505,"STATE_CODE":"VIC"},{"LATITUDE":-38.2076998099,"LOCALITY_NAME":"TRAFALGAR","LONGITUDE":146.1559385646,"POSTCODE":3824,"STATE_CODE":"VIC"},{"LATITUDE":-36.0561442989,"LOCALITY_NAME":"NATHALIA","LONGITUDE":145.2047467018,"POSTCODE":3638,"STATE_CODE":"VIC"},{"LATITUDE":-37.7588666015,"LOCALITY_NAME":"CAIRNLEA","LONGITUDE":144.7863309983,"POSTCODE":3023,"STATE_CODE":"VIC"},{"LATITUDE":-37.6978776204,"LOCALITY_NAME":"BROOKFIELD","LONGITUDE":144.5518659631,"POSTCODE":3338,"STATE_CODE":"VIC"},{"LATITUDE":-37.826520702,"LOCALITY_NAME":"SURREY HILLS","LONGITUDE":145.0982027887,"POSTCODE":3127,"STATE_CODE":"VIC"},{"LATITUDE":-35.8571386248,"LOCALITY_NAME":"KEELY","LONGITUDE":144.2506408452,"POSTCODE":3568,"STATE_CODE":"VIC"},{"LATITUDE":-36.3144711616,"LOCALITY_NAME":"KYABRAM","LONGITUDE":145.046262758,"POSTCODE":3620,"STATE_CODE":"VIC"},{"LATITUDE":-37.7930587951,"LOCALITY_NAME":"BALWYN NORTH","LONGITUDE":145.0840072472,"POSTCODE":3104,"STATE_CODE":"VIC"},{"LATITUDE":-36.4249655692,"LOCALITY_NAME":"KIALLA","LONGITUDE":145.3962878857,"POSTCODE":3631,"STATE_CODE":"VIC"},{"LATITUDE":-37.8096017706,"LOCALITY_NAME":"BALWYN","LONGITUDE":145.0826888924,"POSTCODE":3103,"STATE_CODE":"VIC"},{"LATITUDE":-37.1449573515,"LOCALITY_NAME":"BENDOC","LONGITUDE":148.9018036689,"POSTCODE":3888,"STATE_CODE":"VIC"},{"LATITUDE":-36.3172371867,"LOCALITY_NAME":"YACKANDANDAH","LONGITUDE":146.8467930655,"POSTCODE":3749,"STATE_CODE":"VIC"},{"LATITUDE":-38.3191608132,"LOCALITY_NAME":"TORQUAY","LONGITUDE":144.3257530364,"POSTCODE":3228,"STATE_CODE":"VIC"},{"LATITUDE":-37.8090093349,"LOCALITY_NAME":"KINGSVILLE","LONGITUDE":144.8790449429,"POSTCODE":3012,"STATE_CODE":"VIC"},{"LATITUDE":-37.7991775915,"LOCALITY_NAME":"WEST FOOTSCRAY","LONGITUDE":144.8710112156,"POSTCODE":3012,"STATE_CODE":"VIC"},{"LATITUDE":-36.8014365702,"LOCALITY_NAME":"KANGAROO FLAT","LONGITUDE":144.2379609399,"POSTCODE":3555,"STATE_CODE":"VIC"},{"LATITUDE":-37.6693616414,"LOCALITY_NAME":"TARRENLEA","LONGITUDE":141.7254714448,"POSTCODE":3315,"STATE_CODE":"VIC"},{"LATITUDE":-38.040039533,"LOCALITY_NAME":"LOCH SPORT","LONGITUDE":147.5933659469,"POSTCODE":3851,"STATE_CODE":"VIC"},{"LATITUDE":-37.6249423272,"LOCALITY_NAME":"ROXBURGH PARK","LONGITUDE":144.925520683,"POSTCODE":3064,"STATE_CODE":"VIC"},{"LATITUDE":-37.5404370436,"LOCALITY_NAME":"GOLDEN POINT","LONGITUDE":143.8875289819,"POSTCODE":3350,"STATE_CODE":"VIC"},{"LATITUDE":-38.0128067695,"LOCALITY_NAME":"COWWARR","LONGITUDE":146.6841121871,"POSTCODE":3857,"STATE_CODE":"VIC"},{"LATITUDE":-34.2382134493,"LOCALITY_NAME":"IRYMPLE","LONGITUDE":142.1689139771,"POSTCODE":3498,"STATE_CODE":"VIC"},{"LATITUDE":-37.6401080275,"LOCALITY_NAME":"EPPING","LONGITUDE":145.0269211269,"POSTCODE":3076,"STATE_CODE":"VIC"},{"LATITUDE":-37.78396609,"LOCALITY_NAME":"MAIDSTONE","LONGITUDE":144.874371788,"POSTCODE":3012,"STATE_CODE":"VIC"},{"LATITUDE":-36.7495602666,"LOCALITY_NAME":"MAIDEN GULLY","LONGITUDE":144.2111679391,"POSTCODE":3551,"STATE_CODE":"VIC"},{"LATITUDE":-34.1959721664,"LOCALITY_NAME":"MILDURA","LONGITUDE":142.1459884664,"POSTCODE":3500,"STATE_CODE":"VIC"},{"LATITUDE":-38.1479216964,"LOCALITY_NAME":"FRANKSTON","LONGITUDE":145.1407366046,"POSTCODE":3199,"STATE_CODE":"VIC"},{"LATITUDE":-37.8445515947,"LOCALITY_NAME":"ALBERT PARK","LONGITUDE":144.9528793905,"POSTCODE":3206,"STATE_CODE":"VIC"},{"LATITUDE":-38.0063141427,"LOCALITY_NAME":"HALLAM","LONGITUDE":145.2704919804,"POSTCODE":3803,"STATE_CODE":"VIC"},{"LATITUDE":-36.4631515444,"LOCALITY_NAME":"COONOOER BRIDGE","LONGITUDE":143.3094573112,"POSTCODE":3477,"STATE_CODE":"VIC"},{"LATITUDE":-36.7142178082,"LOCALITY_NAME":"RIVERSIDE","LONGITUDE":142.2421768354,"POSTCODE":3401,"STATE_CODE":"VIC"},{"LATITUDE":-38.0627512742,"LOCALITY_NAME":"BONBEACH","LONGITUDE":145.1243263533,"POSTCODE":3196,"STATE_CODE":"VIC"},{"LATITUDE":-37.9555310278,"LOCALITY_NAME":"DERRINALLUM","LONGITUDE":143.2078375104,"POSTCODE":3325,"STATE_CODE":"VIC"},{"LATITUDE":-38.0420521545,"LOCALITY_NAME":"BERWICK","LONGITUDE":145.3419457225,"POSTCODE":3806,"STATE_CODE":"VIC"},{"LATITUDE":-37.8669771575,"LOCALITY_NAME":"ASHBURTON","LONGITUDE":145.0811204223,"POSTCODE":3147,"STATE_CODE":"VIC"},{"LATITUDE":-36.357983443,"LOCALITY_NAME":"WANGARATTA","LONGITUDE":146.310859144,"POSTCODE":3677,"STATE_CODE":"VIC"},{"LATITUDE":-37.7576108142,"LOCALITY_NAME":"LILYDALE","LONGITUDE":145.3547350296,"POSTCODE":3140,"STATE_CODE":"VIC"},{"LATITUDE":-37.5885582655,"LOCALITY_NAME":"CRAIGIEBURN","LONGITUDE":144.9170213857,"POSTCODE":3064,"STATE_CODE":"VIC"},{"LATITUDE":-37.8057866939,"LOCALITY_NAME":"KILSYTH","LONGITUDE":145.3170179781,"POSTCODE":3137,"STATE_CODE":"VIC"},{"LATITUDE":-38.3156413809,"LOCALITY_NAME":"WOODFORD","LONGITUDE":142.4857649351,"POSTCODE":3281,"STATE_CODE":"VIC"},{"LATITUDE":-37.7852475671,"LOCALITY_NAME":"FLEMINGTON","LONGITUDE":144.9283727946,"POSTCODE":3031,"STATE_CODE":"VIC"},{"LATITUDE":-37.9476542011,"LOCALITY_NAME":"SPRINGVALE","LONGITUDE":145.1520054156,"POSTCODE":3171,"STATE_CODE":"VIC"},{"LATITUDE":-36.8400565391,"LOCALITY_NAME":"EMU CREEK","LONGITUDE":144.3500220341,"POSTCODE":3551,"STATE_CODE":"VIC"},{"LATITUDE":-37.9824218213,"LOCALITY_NAME":"BEAUMARIS","LONGITUDE":145.0399160694,"POSTCODE":3193,"STATE_CODE":"VIC"},{"LATITUDE":-38.2097398436,"LOCALITY_NAME":"WAURN PONDS","LONGITUDE":144.3019399341,"POSTCODE":3216,"STATE_CODE":"VIC"},{"LATITUDE":-37.8674007069,"LOCALITY_NAME":"ASHWOOD","LONGITUDE":145.1014412557,"POSTCODE":3147,"STATE_CODE":"VIC"},{"LATITUDE":-37.7403145026,"LOCALITY_NAME":"ROSANNA","LONGITUDE":145.0692036376,"POSTCODE":3084,"STATE_CODE":"VIC"},{"LATITUDE":-37.5201543013,"LOCALITY_NAME":"SPRINGBANK","LONGITUDE":144.0621512781,"POSTCODE":3352,"STATE_CODE":"VIC"},{"LATITUDE":-38.1470990713,"LOCALITY_NAME":"NEWTOWN","LONGITUDE":144.3286596157,"POSTCODE":3220,"STATE_CODE":"VIC"},{"LATITUDE":-37.2905992378,"LOCALITY_NAME":"JAMIESON","LONGITUDE":146.1392429748,"POSTCODE":3723,"STATE_CODE":"VIC"},{"LATITUDE":-37.8171025181,"LOCALITY_NAME":"MELBOURNE","LONGITUDE":144.9635024179,"POSTCODE":3000,"STATE_CODE":"VIC"},{"LATITUDE":-37.8428184265,"LOCALITY_NAME":"NEWPORT","LONGITUDE":144.8779691378,"POSTCODE":3015,"STATE_CODE":"VIC"},{"LATITUDE":-37.8360323316,"LOCALITY_NAME":"BOX HILL SOUTH","LONGITUDE":145.1216477661,"POSTCODE":3128,"STATE_CODE":"VIC"},{"LATITUDE":-37.6977359103,"LOCALITY_NAME":"ELTHAM NORTH","LONGITUDE":145.1404388648,"POSTCODE":3095,"STATE_CODE":"VIC"},{"LATITUDE":-38.2699814064,"LOCALITY_NAME":"LANG LANG","LONGITUDE":145.5689862002,"POSTCODE":3984,"STATE_CODE":"VIC"},{"LATITUDE":-37.8706084398,"LOCALITY_NAME":"LAKES ENTRANCE","LONGITUDE":148.0007453596,"POSTCODE":3909,"STATE_CODE":"VIC"},{"LATITUDE":-38.1315877875,"LOCALITY_NAME":"DROUIN","LONGITUDE":145.8535941194,"POSTCODE":3818,"STATE_CODE":"VIC"},{"LATITUDE":-37.8421975511,"LOCALITY_NAME":"TARNEIT","LONGITUDE":144.6681353707,"POSTCODE":3029,"STATE_CODE":"VIC"},{"LATITUDE":-36.7551363809,"LOCALITY_NAME":"HAVEN","LONGITUDE":142.1948345542,"POSTCODE":3401,"STATE_CODE":"VIC"},{"LATITUDE":-37.6672735722,"LOCALITY_NAME":"LALOR","LONGITUDE":145.0142728451,"POSTCODE":3075,"STATE_CODE":"VIC"},{"LATITUDE":-37.7026664638,"LOCALITY_NAME":"ORBOST","LONGITUDE":148.4618976865,"POSTCODE":3888,"STATE_CODE":"VIC"},{"LATITUDE":-38.477832493,"LOCALITY_NAME":"LEONGATHA","LONGITUDE":145.9492813102,"POSTCODE":3953,"STATE_CODE":"VIC"},{"LATITUDE":-37.3548600992,"LOCALITY_NAME":"WANDONG","LONGITUDE":145.0247953172,"POSTCODE":3758,"STATE_CODE":"VIC"},{"LATITUDE":-38.1555019786,"LOCALITY_NAME":"WARRAGUL","LONGITUDE":145.9337407627,"POSTCODE":3820,"STATE_CODE":"VIC"},{"LATITUDE":-36.3392887403,"LOCALITY_NAME":"SHEPPARTON NORTH","LONGITUDE":145.4080454991,"POSTCODE":3631,"STATE_CODE":"VIC"},{"LATITUDE":-38.0637673072,"LOCALITY_NAME":"OFFICER","LONGITUDE":145.4126950728,"POSTCODE":3809,"STATE_CODE":"VIC"},{"LATITUDE":-38.1221995413,"LOCALITY_NAME":"HAMLYN HEIGHTS","LONGITUDE":144.3275564334,"POSTCODE":3215,"STATE_CODE":"VIC"},{"LATITUDE":-38.1731658298,"LOCALITY_NAME":"DRYSDALE","LONGITUDE":144.5717369199,"POSTCODE":3222,"STATE_CODE":"VIC"},{"LATITUDE":-38.0983394273,"LOCALITY_NAME":"CLYDE NORTH","LONGITUDE":145.3433606142,"POSTCODE":3978,"STATE_CODE":"VIC"},{"LATITUDE":-38.1439328854,"LOCALITY_NAME":"BOTANIC RIDGE","LONGITUDE":145.2685035626,"POSTCODE":3977,"STATE_CODE":"VIC"},{"LATITUDE":-37.8800341896,"LOCALITY_NAME":"WYNDHAM VALE","LONGITUDE":144.6160265925,"POSTCODE":3024,"STATE_CODE":"VIC"},{"LATITUDE":-38.0999550122,"LOCALITY_NAME":"CARRUM DOWNS","LONGITUDE":145.180662607,"POSTCODE":3201,"STATE_CODE":"VIC"},{"LATITUDE":-37.7093694235,"LOCALITY_NAME":"HADFIELD","LONGITUDE":144.9453558526,"POSTCODE":3046,"STATE_CODE":"VIC"},{"LATITUDE":-37.9812387073,"LOCALITY_NAME":"MENTONE","LONGITUDE":145.0675522667,"POSTCODE":3194,"STATE_CODE":"VIC"},{"LATITUDE":-38.0573851423,"LOCALITY_NAME":"NARRE WARREN SOUTH","LONGITUDE":145.3017519958,"POSTCODE":3805,"STATE_CODE":"VIC"},{"LATITUDE":-38.1494059002,"LOCALITY_NAME":"GEELONG","LONGITUDE":144.361630021,"POSTCODE":3220,"STATE_CODE":"VIC"},{"LATITUDE":-38.0543755864,"LOCALITY_NAME":"LYNBROOK","LONGITUDE":145.2561711872,"POSTCODE":3975,"STATE_CODE":"VIC"},{"LATITUDE":-37.0453109809,"LOCALITY_NAME":"MARYBOROUGH","LONGITUDE":143.7389671622,"POSTCODE":3465,"STATE_CODE":"VIC"},{"LATITUDE":-36.7441939751,"LOCALITY_NAME":"LONG GULLY","LONGITUDE":144.2600173874,"POSTCODE":3550,"STATE_CODE":"VIC"},{"LATITUDE":-37.6354419194,"LOCALITY_NAME":"GREENVALE","LONGITUDE":144.8909432653,"POSTCODE":3059,"STATE_CODE":"VIC"},{"LATITUDE":-36.0009600175,"LOCALITY_NAME":"KATUNGA","LONGITUDE":145.4680759656,"POSTCODE":3640,"STATE_CODE":"VIC"},{"LATITUDE":-37.7415178252,"LOCALITY_NAME":"PRESTON","LONGITUDE":145.0057276829,"POSTCODE":3072,"STATE_CODE":"VIC"},{"LATITUDE":-37.8038078091,"LOCALITY_NAME":"MONT ALBERT NORTH","LONGITUDE":145.1102650443,"POSTCODE":3129,"STATE_CODE":"VIC"},{"LATITUDE":-37.6228932643,"LOCALITY_NAME":"DIGGERS REST","LONGITUDE":144.7089179282,"POSTCODE":3427,"STATE_CODE":"VIC"},{"LATITUDE":-37.9157845338,"LOCALITY_NAME":"BRIGHTON EAST","LONGITUDE":145.0166589878,"POSTCODE":3187,"STATE_CODE":"VIC"},{"LATITUDE":-38.1015646704,"LOCALITY_NAME":"CRANBOURNE WEST","LONGITUDE":145.2519949742,"POSTCODE":3977,"STATE_CODE":"VIC"},{"LATITUDE":-37.663207152,"LOCALITY_NAME":"MILL PARK","LONGITUDE":145.0617571158,"POSTCODE":3082,"STATE_CODE":"VIC"},{"LATITUDE":-37.8938452823,"LOCALITY_NAME":"CAULFIELD SOUTH","LONGITUDE":145.0250808939,"POSTCODE":3162,"STATE_CODE":"VIC"},{"LATITUDE":-38.1117935485,"LOCALITY_NAME":"CRANBOURNE EAST","LONGITUDE":145.3036131718,"POSTCODE":3977,"STATE_CODE":"VIC"},{"LATITUDE":-37.8296666514,"LOCALITY_NAME":"KILSYTH SOUTH","LONGITUDE":145.3085288107,"POSTCODE":3137,"STATE_CODE":"VIC"},{"LATITUDE":-38.3765792565,"LOCALITY_NAME":"WARRNAMBOOL","LONGITUDE":142.4893350111,"POSTCODE":3280,"STATE_CODE":"VIC"},{"LATITUDE":-38.1974789937,"LOCALITY_NAME":"PEARCEDALE","LONGITUDE":145.2386172036,"POSTCODE":3912,"STATE_CODE":"VIC"},{"LATITUDE":-36.6737495623,"LOCALITY_NAME":"MARNOO","LONGITUDE":142.8732582873,"POSTCODE":3387,"STATE_CODE":"VIC"},{"LATITUDE":-36.3706730462,"LOCALITY_NAME":"DONALD","LONGITUDE":142.9857226727,"POSTCODE":3480,"STATE_CODE":"VIC"},{"LATITUDE":-37.8554650281,"LOCALITY_NAME":"GLEN IRIS","LONGITUDE":145.0610015251,"POSTCODE":3146,"STATE_CODE":"VIC"},{"LATITUDE":-36.0733552033,"LOCALITY_NAME":"BRIM","LONGITUDE":142.4211805308,"POSTCODE":3391,"STATE_CODE":"VIC"},{"LATITUDE":-37.5638674651,"LOCALITY_NAME":"BALLARAT EAST","LONGITUDE":143.8805368013,"POSTCODE":3350,"STATE_CODE":"VIC"},{"LATITUDE":-37.4950001393,"LOCALITY_NAME":"GISBORNE","LONGITUDE":144.5940478339,"POSTCODE":3437,"STATE_CODE":"VIC"},{"LATITUDE":-36.6155273482,"LOCALITY_NAME":"MURTOA","LONGITUDE":142.4701468849,"POSTCODE":3390,"STATE_CODE":"VIC"},{"LATITUDE":-37.9633127594,"LOCALITY_NAME":"CHELTENHAM","LONGITUDE":145.061501431,"POSTCODE":3192,"STATE_CODE":"VIC"},{"LATITUDE":-37.0590612201,"LOCALITY_NAME":"STAWELL","LONGITUDE":142.7767668566,"POSTCODE":3380,"STATE_CODE":"VIC"},{"LATITUDE":-38.017438938,"LOCALITY_NAME":"NARRE WARREN","LONGITUDE":145.3061785798,"POSTCODE":3805,"STATE_CODE":"VIC"},{"LATITUDE":-38.0477263056,"LOCALITY_NAME":"BANNOCKBURN","LONGITUDE":144.1713603365,"POSTCODE":3331,"STATE_CODE":"VIC"},{"LATITUDE":-38.1701547862,"LOCALITY_NAME":"CURLEWIS","LONGITUDE":144.5445182679,"POSTCODE":3222,"STATE_CODE":"VIC"},{"LATITUDE":-37.8119149266,"LOCALITY_NAME":"MONTROSE","LONGITUDE":145.3447807075,"POSTCODE":3765,"STATE_CODE":"VIC"},{"LATITUDE":-37.5838435739,"LOCALITY_NAME":"DELACOMBE","LONGITUDE":143.8175903454,"POSTCODE":3356,"STATE_CODE":"VIC"},{"LATITUDE":-38.100855302,"LOCALITY_NAME":"INVERLEIGH","LONGITUDE":144.0451199868,"POSTCODE":3321,"STATE_CODE":"VIC"},{"LATITUDE":-37.9967603797,"LOCALITY_NAME":"KEYSBOROUGH","LONGITUDE":145.1689736698,"POSTCODE":3173,"STATE_CODE":"VIC"},{"LATITUDE":-38.3451093561,"LOCALITY_NAME":"SORRENTO","LONGITUDE":144.7438015548,"POSTCODE":3943,"STATE_CODE":"VIC"},{"LATITUDE":-37.7652731711,"LOCALITY_NAME":"TARRINGTON","LONGITUDE":142.1003606242,"POSTCODE":3301,"STATE_CODE":"VIC"},{"LATITUDE":-37.5697926063,"LOCALITY_NAME":"WARRENHEIP","LONGITUDE":143.9258794119,"POSTCODE":3352,"STATE_CODE":"VIC"},{"LATITUDE":-38.5579407076,"LOCALITY_NAME":"COORIEMUNGLE","LONGITUDE":143.1347051601,"POSTCODE":3268,"STATE_CODE":"VIC"},{"LATITUDE":-38.2918731592,"LOCALITY_NAME":"POMBORNEIT","LONGITUDE":143.2943395881,"POSTCODE":3260,"STATE_CODE":"VIC"},{"LATITUDE":-37.9851497265,"LOCALITY_NAME":"DANDENONG","LONGITUDE":145.2112285767,"POSTCODE":3175,"STATE_CODE":"VIC"},{"LATITUDE":-37.7648701366,"LOCALITY_NAME":"IVANHOE","LONGITUDE":145.0434636282,"POSTCODE":3079,"STATE_CODE":"VIC"},{"LATITUDE":-38.2695444502,"LOCALITY_NAME":"CONNEWARRE","LONGITUDE":144.4387833821,"POSTCODE":3227,"STATE_CODE":"VIC"},{"LATITUDE":-38.1881996572,"LOCALITY_NAME":"LEOPOLD","LONGITUDE":144.4663789476,"POSTCODE":3224,"STATE_CODE":"VIC"},{"LATITUDE":-35.8983787065,"LOCALITY_NAME":"RAINBOW","LONGITUDE":141.9938996033,"POSTCODE":3424,"STATE_CODE":"VIC"},{"LATITUDE":-38.0694481466,"LOCALITY_NAME":"PATTERSON LAKES","LONGITUDE":145.1423070346,"POSTCODE":3197,"STATE_CODE":"VIC"},{"LATITUDE":-38.2670509419,"LOCALITY_NAME":"MOUNT MARTHA","LONGITUDE":145.0261663422,"POSTCODE":3934,"STATE_CODE":"VIC"},{"LATITUDE":-37.7861399242,"LOCALITY_NAME":"CARLTON NORTH","LONGITUDE":144.972937616,"POSTCODE":3054,"STATE_CODE":"VIC"},{"LATITUDE":-37.575892052,"LOCALITY_NAME":"SUNBURY","LONGITUDE":144.7190883016,"POSTCODE":3429,"STATE_CODE":"VIC"},{"LATITUDE":-37.3556406863,"LOCALITY_NAME":"BLAMPIED","LONGITUDE":144.0364947932,"POSTCODE":3364,"STATE_CODE":"VIC"},{"LATITUDE":-36.998426456,"LOCALITY_NAME":"HARCOURT","LONGITUDE":144.2619528208,"POSTCODE":3453,"STATE_CODE":"VIC"},{"LATITUDE":-37.9226537054,"LOCALITY_NAME":"BENTLEIGH","LONGITUDE":145.0385765122,"POSTCODE":3204,"STATE_CODE":"VIC"},{"LATITUDE":-37.7244943269,"LOCALITY_NAME":"PASCOE VALE","LONGITUDE":144.9375618545,"POSTCODE":3044,"STATE_CODE":"VIC"},{"LATITUDE":-37.5510463321,"LOCALITY_NAME":"BROWN HILL","LONGITUDE":143.905709281,"POSTCODE":3350,"STATE_CODE":"VIC"},{"LATITUDE":-37.8387883904,"LOCALITY_NAME":"FOREST HILL","LONGITUDE":145.1708047011,"POSTCODE":3131,"STATE_CODE":"VIC"},{"LATITUDE":-36.7262549656,"LOCALITY_NAME":"NEUARPURR","LONGITUDE":141.0322199438,"POSTCODE":3413,"STATE_CODE":"VIC"},{"LATITUDE":-37.918074928,"LOCALITY_NAME":"AVONSLEIGH","LONGITUDE":145.4768548637,"POSTCODE":3782,"STATE_CODE":"VIC"},{"LATITUDE":-37.2732589821,"LOCALITY_NAME":"LANCEFIELD","LONGITUDE":144.732982534,"POSTCODE":3435,"STATE_CODE":"VIC"},{"LATITUDE":-37.7137583855,"LOCALITY_NAME":"RESERVOIR","LONGITUDE":145.0097816023,"POSTCODE":3073,"STATE_CODE":"VIC"},{"LATITUDE":-37.865050141,"LOCALITY_NAME":"ALTONA","LONGITUDE":144.8186717201,"POSTCODE":3018,"STATE_CODE":"VIC"},{"LATITUDE":-38.5914922273,"LOCALITY_NAME":"NORTH WONTHAGGI","LONGITUDE":145.5974581837,"POSTCODE":3995,"STATE_CODE":"VIC"},{"LATITUDE":-37.8117488183,"LOCALITY_NAME":"RINGWOOD","LONGITUDE":145.2315300168,"POSTCODE":3134,"STATE_CODE":"VIC"},{"LATITUDE":-37.772061729,"LOCALITY_NAME":"CROYDON NORTH","LONGITUDE":145.2847866646,"POSTCODE":3136,"STATE_CODE":"VIC"},{"LATITUDE":-38.2954877611,"LOCALITY_NAME":"THORPDALE","LONGITUDE":146.1668684803,"POSTCODE":3835,"STATE_CODE":"VIC"},{"LATITUDE":-37.6106624474,"LOCALITY_NAME":"WOLLERT","LONGITUDE":145.0144985551,"POSTCODE":3750,"STATE_CODE":"VIC"},{"LATITUDE":-37.7780306509,"LOCALITY_NAME":"ARDEER","LONGITUDE":144.8018863438,"POSTCODE":3022,"STATE_CODE":"VIC"},{"LATITUDE":-37.8338016126,"LOCALITY_NAME":"YELLINGBO","LONGITUDE":145.5216811954,"POSTCODE":3139,"STATE_CODE":"VIC"},{"LATITUDE":-37.8111874826,"LOCALITY_NAME":"DEEPDENE","LONGITUDE":145.0656881091,"POSTCODE":3103,"STATE_CODE":"VIC"},{"LATITUDE":-37.7949602901,"LOCALITY_NAME":"SUNSHINE WEST","LONGITUDE":144.8087211938,"POSTCODE":3020,"STATE_CODE":"VIC"},{"LATITUDE":-36.7420769778,"LOCALITY_NAME":"GYMBOWEN","LONGITUDE":141.6140133811,"POSTCODE":3401,"STATE_CODE":"VIC"},{"LATITUDE":-36.1799715237,"LOCALITY_NAME":"BARANDUDA","LONGITUDE":146.9452686693,"POSTCODE":3691,"STATE_CODE":"VIC"},{"LATITUDE":-36.014978754,"LOCALITY_NAME":"YARRAWONGA","LONGITUDE":146.0154337184,"POSTCODE":3730,"STATE_CODE":"VIC"},{"LATITUDE":-38.1804567788,"LOCALITY_NAME":"BREAKWATER","LONGITUDE":144.3731463813,"POSTCODE":3219,"STATE_CODE":"VIC"},{"LATITUDE":-37.7655610993,"LOCALITY_NAME":"MOONEE PONDS","LONGITUDE":144.9205136048,"POSTCODE":3039,"STATE_CODE":"VIC"},{"LATITUDE":-37.7055805022,"LOCALITY_NAME":"FAWKNER","LONGITUDE":144.9683119703,"POSTCODE":3060,"STATE_CODE":"VIC"},{"LATITUDE":-38.1333901274,"LOCALITY_NAME":"HEYWOOD","LONGITUDE":141.6292733376,"POSTCODE":3304,"STATE_CODE":"VIC"},{"LATITUDE":-37.7939753813,"LOCALITY_NAME":"CROYDON","LONGITUDE":145.2841610003,"POSTCODE":3136,"STATE_CODE":"VIC"},{"LATITUDE":-37.7049612912,"LOCALITY_NAME":"BRUTHEN","LONGITUDE":147.8369397572,"POSTCODE":3885,"STATE_CODE":"VIC"},{"LATITUDE":-36.3888985787,"LOCALITY_NAME":"MOOROOPNA","LONGITUDE":145.3484193154,"POSTCODE":3629,"STATE_CODE":"VIC"},{"LATITUDE":-37.8989181761,"LOCALITY_NAME":"WERRIBEE","LONGITUDE":144.6511828775,"POSTCODE":3030,"STATE_CODE":"VIC"},{"LATITUDE":-38.1028330893,"LOCALITY_NAME":"SALE","LONGITUDE":147.0745023126,"POSTCODE":3850,"STATE_CODE":"VIC"},{"LATITUDE":-37.7063643696,"LOCALITY_NAME":"BRIAR HILL","LONGITUDE":145.1203704236,"POSTCODE":3088,"STATE_CODE":"VIC"},{"LATITUDE":-37.6658172893,"LOCALITY_NAME":"CAMPBELLFIELD","LONGITUDE":144.9598499501,"POSTCODE":3061,"STATE_CODE":"VIC"},{"LATITUDE":-38.3702231544,"LOCALITY_NAME":"LOCH","LONGITUDE":145.7006021059,"POSTCODE":3945,"STATE_CODE":"VIC"},{"LATITUDE":-38.1762163422,"LOCALITY_NAME":"MOOLAP","LONGITUDE":144.419149579,"POSTCODE":3224,"STATE_CODE":"VIC"},{"LATITUDE":-37.8634696752,"LOCALITY_NAME":"ST KILDA","LONGITUDE":144.9825241643,"POSTCODE":3182,"STATE_CODE":"VIC"},{"LATITUDE":-36.8586508366,"LOCALITY_NAME":"DUNOLLY","LONGITUDE":143.7289624578,"POSTCODE":3472,"STATE_CODE":"VIC"},{"LATITUDE":-37.9503577618,"LOCALITY_NAME":"HIGHETT","LONGITUDE":145.0408618312,"POSTCODE":3190,"STATE_CODE":"VIC"},{"LATITUDE":-37.7947209607,"LOCALITY_NAME":"KEW EAST","LONGITUDE":145.053287578,"POSTCODE":3102,"STATE_CODE":"VIC"},{"LATITUDE":-38.2298577274,"LOCALITY_NAME":"GOLDEN BEACH","LONGITUDE":147.3680436809,"POSTCODE":3851,"STATE_CODE":"VIC"},{"LATITUDE":-37.6511300259,"LOCALITY_NAME":"DUNKELD","LONGITUDE":142.3446252897,"POSTCODE":3294,"STATE_CODE":"VIC"},{"LATITUDE":-38.7515809102,"LOCALITY_NAME":"APOLLO BAY","LONGITUDE":143.6640260998,"POSTCODE":3233,"STATE_CODE":"VIC"},{"LATITUDE":-36.9438061841,"LOCALITY_NAME":"TOLMIE","LONGITUDE":146.2439294881,"POSTCODE":3723,"STATE_CODE":"VIC"},{"LATITUDE":-37.8189713285,"LOCALITY_NAME":"RICHMOND","LONGITUDE":145.0013660391,"POSTCODE":3121,"STATE_CODE":"VIC"},{"LATITUDE":-37.8348873834,"LOCALITY_NAME":"ALTONA NORTH","LONGITUDE":144.8500091219,"POSTCODE":3025,"STATE_CODE":"VIC"},{"LATITUDE":-37.2835163831,"LOCALITY_NAME":"DENVER","LONGITUDE":144.2901827901,"POSTCODE":3461,"STATE_CODE":"VIC"},{"LATITUDE":-37.8600126858,"LOCALITY_NAME":"WILLIAMSTOWN","LONGITUDE":144.8922327877,"POSTCODE":3016,"STATE_CODE":"VIC"},{"LATITUDE":-37.9239491229,"LOCALITY_NAME":"OAKLEIGH SOUTH","LONGITUDE":145.0944015901,"POSTCODE":3167,"STATE_CODE":"VIC"},{"LATITUDE":-36.7494117516,"LOCALITY_NAME":"EAST BENDIGO","LONGITUDE":144.3071668113,"POSTCODE":3550,"STATE_CODE":"VIC"},{"LATITUDE":-36.778287077,"LOCALITY_NAME":"FLORA HILL","LONGITUDE":144.2932744824,"POSTCODE":3550,"STATE_CODE":"VIC"},{"LATITUDE":-36.4106891738,"LOCALITY_NAME":"SERPENTINE","LONGITUDE":143.9760001594,"POSTCODE":3517,"STATE_CODE":"VIC"},{"LATITUDE":-37.8539199051,"LOCALITY_NAME":"WILLIAMSTOWN NORTH","LONGITUDE":144.872212022,"POSTCODE":3016,"STATE_CODE":"VIC"},{"LATITUDE":-37.9051559227,"LOCALITY_NAME":"NOTTING HILL","LONGITUDE":145.1428041341,"POSTCODE":3168,"STATE_CODE":"VIC"},{"LATITUDE":-37.2247832564,"LOCALITY_NAME":"YEA","LONGITUDE":145.4187336016,"POSTCODE":3717,"STATE_CODE":"VIC"},{"LATITUDE":-36.0163686542,"LOCALITY_NAME":"TORRUMBARRY","LONGITUDE":144.5310560441,"POSTCODE":3562,"STATE_CODE":"VIC"},{"LATITUDE":-36.8042579766,"LOCALITY_NAME":"STRATHFIELDSAYE","LONGITUDE":144.3502034953,"POSTCODE":3551,"STATE_CODE":"VIC"},{"LATITUDE":-38.2260012275,"LOCALITY_NAME":"MOUNT DUNEED","LONGITUDE":144.3261065945,"POSTCODE":3217,"STATE_CODE":"VIC"},{"LATITUDE":-38.1909007578,"LOCALITY_NAME":"MOUNT ELIZA","LONGITUDE":145.0930569418,"POSTCODE":3930,"STATE_CODE":"VIC"},{"LATITUDE":-37.8856215771,"LOCALITY_NAME":"ELSTERNWICK","LONGITUDE":145.0069583083,"POSTCODE":3185,"STATE_CODE":"VIC"},{"LATITUDE":-37.9107682343,"LOCALITY_NAME":"MCKINNON","LONGITUDE":145.0383253676,"POSTCODE":3204,"STATE_CODE":"VIC"},{"LATITUDE":-37.595736648,"LOCALITY_NAME":"SEBASTOPOL","LONGITUDE":143.8364869745,"POSTCODE":3356,"STATE_CODE":"VIC"},{"LATITUDE":-37.8280327381,"LOCALITY_NAME":"BAIRNSDALE","LONGITUDE":147.6095438595,"POSTCODE":3875,"STATE_CODE":"VIC"},{"LATITUDE":-38.3159058934,"LOCALITY_NAME":"SAFETY BEACH","LONGITUDE":144.9962263532,"POSTCODE":3936,"STATE_CODE":"VIC"},{"LATITUDE":-36.100958435,"LOCALITY_NAME":"NETHERBY","LONGITUDE":141.6662497961,"POSTCODE":3418,"STATE_CODE":"VIC"},{"LATITUDE":-37.8972206148,"LOCALITY_NAME":"EAGLE POINT","LONGITUDE":147.6849411902,"POSTCODE":3878,"STATE_CODE":"VIC"},{"LATITUDE":-37.8774102877,"LOCALITY_NAME":"MOUNT WAVERLEY","LONGITUDE":145.1290390618,"POSTCODE":3149,"STATE_CODE":"VIC"},{"LATITUDE":-37.964595478,"LOCALITY_NAME":"BENGWORDEN","LONGITUDE":147.4447291175,"POSTCODE":3875,"STATE_CODE":"VIC"},{"LATITUDE":-37.5419029943,"LOCALITY_NAME":"WOODSTOCK","LONGITUDE":145.0478142951,"POSTCODE":3751,"STATE_CODE":"VIC"},{"LATITUDE":-37.9087425153,"LOCALITY_NAME":"BRIGHTON","LONGITUDE":144.9971757646,"POSTCODE":3186,"STATE_CODE":"VIC"},{"LATITUDE":-37.9407716875,"LOCALITY_NAME":"MOORABBIN","LONGITUDE":145.0546267467,"POSTCODE":3189,"STATE_CODE":"VIC"},{"LATITUDE":-36.0551611132,"LOCALITY_NAME":"RUTHERGLEN","LONGITUDE":146.463258232,"POSTCODE":3685,"STATE_CODE":"VIC"},{"LATITUDE":-36.7150358654,"LOCALITY_NAME":"EAGLEHAWK","LONGITUDE":144.2575453567,"POSTCODE":3556,"STATE_CODE":"VIC"},{"LATITUDE":-37.2787237122,"LOCALITY_NAME":"CHETWYND","LONGITUDE":141.3971756915,"POSTCODE":3312,"STATE_CODE":"VIC"},{"LATITUDE":-38.5090300877,"LOCALITY_NAME":"WOOLAMAI","LONGITUDE":145.5144887097,"POSTCODE":3995,"STATE_CODE":"VIC"},{"LATITUDE":-37.5771409274,"LOCALITY_NAME":"GORDON","LONGITUDE":144.1071038036,"POSTCODE":3345,"STATE_CODE":"VIC"},{"LATITUDE":-36.572223424,"LOCALITY_NAME":"WHOROULY SOUTH","LONGITUDE":146.59819237,"POSTCODE":3735,"STATE_CODE":"VIC"},{"LATITUDE":-37.8375965536,"LOCALITY_NAME":"VERMONT","LONGITUDE":145.1987544569,"POSTCODE":3133,"STATE_CODE":"VIC"},{"LATITUDE":-37.9380716349,"LOCALITY_NAME":"CLAYTON SOUTH","LONGITUDE":145.1259757653,"POSTCODE":3169,"STATE_CODE":"VIC"},{"LATITUDE":-37.1045893569,"LOCALITY_NAME":"OMEO","LONGITUDE":147.5887261608,"POSTCODE":3898,"STATE_CODE":"VIC"},{"LATITUDE":-36.7382848342,"LOCALITY_NAME":"MOLIAGUL","LONGITUDE":143.6680526115,"POSTCODE":3472,"STATE_CODE":"VIC"},{"LATITUDE":-38.1813024917,"LOCALITY_NAME":"NEWBOROUGH","LONGITUDE":146.2899883547,"POSTCODE":3825,"STATE_CODE":"VIC"},{"LATITUDE":-37.3523895423,"LOCALITY_NAME":"WAUBRA","LONGITUDE":143.6299626374,"POSTCODE":3352,"STATE_CODE":"VIC"},{"LATITUDE":-37.4928741562,"LOCALITY_NAME":"MINERS REST","LONGITUDE":143.8056079882,"POSTCODE":3352,"STATE_CODE":"VIC"},{"LATITUDE":-38.3675608838,"LOCALITY_NAME":"ROSEBUD","LONGITUDE":144.9075557526,"POSTCODE":3939,"STATE_CODE":"VIC"},{"LATITUDE":-37.8832082899,"LOCALITY_NAME":"FERNTREE GULLY","LONGITUDE":145.2796174047,"POSTCODE":3156,"STATE_CODE":"VIC"},{"LATITUDE":-37.5137639541,"LOCALITY_NAME":"INVERMAY","LONGITUDE":143.8768016323,"POSTCODE":3352,"STATE_CODE":"VIC"},{"LATITUDE":-38.1693643719,"LOCALITY_NAME":"BARRABOOL","LONGITUDE":144.2297927609,"POSTCODE":3221,"STATE_CODE":"VIC"},{"LATITUDE":-38.3508954847,"LOCALITY_NAME":"PORTLAND","LONGITUDE":141.6022788793,"POSTCODE":3305,"STATE_CODE":"VIC"},{"LATITUDE":-36.758246017,"LOCALITY_NAME":"BENDIGO","LONGITUDE":144.2786828316,"POSTCODE":3550,"STATE_CODE":"VIC"},{"LATITUDE":-35.9535649823,"LOCALITY_NAME":"YALCA","LONGITUDE":145.2897974407,"POSTCODE":3637,"STATE_CODE":"VIC"},{"LATITUDE":-35.3416938449,"LOCALITY_NAME":"SWAN HILL","LONGITUDE":143.5499745707,"POSTCODE":3585,"STATE_CODE":"VIC"},{"LATITUDE":-37.8252388715,"LOCALITY_NAME":"SOUTHBANK","LONGITUDE":144.9626120239,"POSTCODE":3006,"STATE_CODE":"VIC"},{"LATITUDE":-36.7149707353,"LOCALITY_NAME":"VECTIS","LONGITUDE":142.0939811835,"POSTCODE":3401,"STATE_CODE":"VIC"},{"LATITUDE":-38.5469853174,"LOCALITY_NAME":"KILCUNDA","LONGITUDE":145.4748842,"POSTCODE":3995,"STATE_CODE":"VIC"},{"LATITUDE":-37.9118669045,"LOCALITY_NAME":"PAYNESVILLE","LONGITUDE":147.7185969232,"POSTCODE":3880,"STATE_CODE":"VIC"},{"LATITUDE":-37.2988380147,"LOCALITY_NAME":"KILMORE","LONGITUDE":144.9500045385,"POSTCODE":3764,"STATE_CODE":"VIC"},{"LATITUDE":-37.121754773,"LOCALITY_NAME":"PYALONG","LONGITUDE":144.857847698,"POSTCODE":3521,"STATE_CODE":"VIC"},{"LATITUDE":-37.8183201983,"LOCALITY_NAME":"MITCHAM","LONGITUDE":145.1977204791,"POSTCODE":3132,"STATE_CODE":"VIC"},{"LATITUDE":-37.9363057789,"LOCALITY_NAME":"BAMGANIE","LONGITUDE":143.99497632,"POSTCODE":3333,"STATE_CODE":"VIC"},{"LATITUDE":-37.7294667187,"LOCALITY_NAME":"LOWER PLENTY","LONGITUDE":145.118116791,"POSTCODE":3093,"STATE_CODE":"VIC"},{"LATITUDE":-38.1712070546,"LOCALITY_NAME":"FRANKSTON SOUTH","LONGITUDE":145.1277490684,"POSTCODE":3199,"STATE_CODE":"VIC"},{"LATITUDE":-37.1285495077,"LOCALITY_NAME":"MAINTONGOON","LONGITUDE":145.7860966117,"POSTCODE":3714,"STATE_CODE":"VIC"},{"LATITUDE":-37.3269242004,"LOCALITY_NAME":"SMEATON","LONGITUDE":143.9525918478,"POSTCODE":3364,"STATE_CODE":"VIC"},{"LATITUDE":-38.1214257559,"LOCALITY_NAME":"TANJIL SOUTH","LONGITUDE":146.2715791572,"POSTCODE":3825,"STATE_CODE":"VIC"},{"LATITUDE":-38.2368811243,"LOCALITY_NAME":"ARMSTRONG CREEK","LONGITUDE":144.3568928803,"POSTCODE":3217,"STATE_CODE":"VIC"},{"LATITUDE":-37.829418136,"LOCALITY_NAME":"EAST BAIRNSDALE","LONGITUDE":147.6501264829,"POSTCODE":3875,"STATE_CODE":"VIC"},{"LATITUDE":-37.8795889742,"LOCALITY_NAME":"METUNG","LONGITUDE":147.8420088451,"POSTCODE":3904,"STATE_CODE":"VIC"},{"LATITUDE":-37.8574469443,"LOCALITY_NAME":"MALVERN","LONGITUDE":145.034589081,"POSTCODE":3144,"STATE_CODE":"VIC"},{"LATITUDE":-37.829836673,"LOCALITY_NAME":"HEATHMONT","LONGITUDE":145.2430926224,"POSTCODE":3135,"STATE_CODE":"VIC"},{"LATITUDE":-37.785658321,"LOCALITY_NAME":"MOUNT EVELYN","LONGITUDE":145.3819388475,"POSTCODE":3796,"STATE_CODE":"VIC"},{"LATITUDE":-37.9253765382,"LOCALITY_NAME":"NEWLANDS ARM","LONGITUDE":147.6964934587,"POSTCODE":3875,"STATE_CODE":"VIC"},{"LATITUDE":-37.8715699474,"LOCALITY_NAME":"CAULFIELD NORTH","LONGITUDE":145.023050442,"POSTCODE":3161,"STATE_CODE":"VIC"},{"LATITUDE":-36.3738897799,"LOCALITY_NAME":"KANIVA","LONGITUDE":141.2436137242,"POSTCODE":3419,"STATE_CODE":"VIC"},{"LATITUDE":-37.3557372726,"LOCALITY_NAME":"RAGLAN","LONGITUDE":143.3335163748,"POSTCODE":3373,"STATE_CODE":"VIC"},{"LATITUDE":-37.6230897117,"LOCALITY_NAME":"SMITHS GULLY","LONGITUDE":145.285778602,"POSTCODE":3760,"STATE_CODE":"VIC"},{"LATITUDE":-37.7382719431,"LOCALITY_NAME":"HAMILTON","LONGITUDE":142.0250609966,"POSTCODE":3300,"STATE_CODE":"VIC"},{"LATITUDE":-37.6262454433,"LOCALITY_NAME":"MOUNT HELEN","LONGITUDE":143.8818376984,"POSTCODE":3350,"STATE_CODE":"VIC"},{"LATITUDE":-37.185733235,"LOCALITY_NAME":"EDGECOMBE","LONGITUDE":144.46850128,"POSTCODE":3444,"STATE_CODE":"VIC"},{"LATITUDE":-36.2215436143,"LOCALITY_NAME":"KOYUGA","LONGITUDE":144.8951688364,"POSTCODE":3622,"STATE_CODE":"VIC"},{"LATITUDE":-36.2661184726,"LOCALITY_NAME":"BAMAWM","LONGITUDE":144.6095366833,"POSTCODE":3561,"STATE_CODE":"VIC"},{"LATITUDE":-37.8339815573,"LOCALITY_NAME":"SOUTH MELBOURNE","LONGITUDE":144.9614324533,"POSTCODE":3205,"STATE_CODE":"VIC"},{"LATITUDE":-37.5258903638,"LOCALITY_NAME":"KINGLAKE","LONGITUDE":145.3518192223,"POSTCODE":3763,"STATE_CODE":"VIC"},{"LATITUDE":-38.5266676851,"LOCALITY_NAME":"CAPE WOOLAMAI","LONGITUDE":145.3357343347,"POSTCODE":3925,"STATE_CODE":"VIC"},{"LATITUDE":-37.9866580433,"LOCALITY_NAME":"NARRE WARREN NORTH","LONGITUDE":145.3062676702,"POSTCODE":3804,"STATE_CODE":"VIC"},{"LATITUDE":-38.2953686844,"LOCALITY_NAME":"KOROIT","LONGITUDE":142.3644978614,"POSTCODE":3282,"STATE_CODE":"VIC"},{"LATITUDE":-38.1366777136,"LOCALITY_NAME":"INDENTED HEAD","LONGITUDE":144.7051330767,"POSTCODE":3223,"STATE_CODE":"VIC"},{"LATITUDE":-38.1776664398,"LOCALITY_NAME":"ST LEONARDS","LONGITUDE":144.7077833013,"POSTCODE":3223,"STATE_CODE":"VIC"},{"LATITUDE":-37.7888082066,"LOCALITY_NAME":"EYNESBURY","LONGITUDE":144.553567999,"POSTCODE":3338,"STATE_CODE":"VIC"},{"LATITUDE":-37.0459899886,"LOCALITY_NAME":"DOUGLAS","LONGITUDE":141.7308718555,"POSTCODE":3409,"STATE_CODE":"VIC"},{"LATITUDE":-38.2685074953,"LOCALITY_NAME":"QUEENSCLIFF","LONGITUDE":144.6497873598,"POSTCODE":3225,"STATE_CODE":"VIC"},{"LATITUDE":-37.8579301357,"LOCALITY_NAME":"BORONIA","LONGITUDE":145.2833424602,"POSTCODE":3155,"STATE_CODE":"VIC"},{"LATITUDE":-36.137122538,"LOCALITY_NAME":"ECHUCA","LONGITUDE":144.7464338223,"POSTCODE":3564,"STATE_CODE":"VIC"},{"LATITUDE":-36.5590360961,"LOCALITY_NAME":"MYRTLEFORD","LONGITUDE":146.7273233451,"POSTCODE":3737,"STATE_CODE":"VIC"},{"LATITUDE":-36.728435141,"LOCALITY_NAME":"CALIFORNIA GULLY","LONGITUDE":144.2618589727,"POSTCODE":3556,"STATE_CODE":"VIC"},{"LATITUDE":-38.0878787339,"LOCALITY_NAME":"BATESFORD","LONGITUDE":144.2727907019,"POSTCODE":3213,"STATE_CODE":"VIC"},{"LATITUDE":-38.1182897917,"LOCALITY_NAME":"NORTH GEELONG","LONGITUDE":144.3461255884,"POSTCODE":3215,"STATE_CODE":"VIC"},{"LATITUDE":-35.9207314457,"LOCALITY_NAME":"COBRAM","LONGITUDE":145.6518523041,"POSTCODE":3644,"STATE_CODE":"VIC"},{"LATITUDE":-38.1950687336,"LOCALITY_NAME":"MARSHALL","LONGITUDE":144.3559324507,"POSTCODE":3216,"STATE_CODE":"VIC"},{"LATITUDE":-37.8776904541,"LOCALITY_NAME":"MALVERN EAST","LONGITUDE":145.0621561807,"POSTCODE":3145,"STATE_CODE":"VIC"},{"LATITUDE":-36.5819460815,"LOCALITY_NAME":"WEHLA","LONGITUDE":143.6181154106,"POSTCODE":3518,"STATE_CODE":"VIC"},{"LATITUDE":-37.9039612596,"LOCALITY_NAME":"OAKLEIGH EAST","LONGITUDE":145.1156395135,"POSTCODE":3166,"STATE_CODE":"VIC"},{"LATITUDE":-37.7503985149,"LOCALITY_NAME":"BURNSIDE","LONGITUDE":144.7512212576,"POSTCODE":3023,"STATE_CODE":"VIC"},{"LATITUDE":-34.2959203384,"LOCALITY_NAME":"CARDROSS","LONGITUDE":142.1434042923,"POSTCODE":3496,"STATE_CODE":"VIC"},{"LATITUDE":-36.3950077598,"LOCALITY_NAME":"SHEPPARTON EAST","LONGITUDE":145.4722569538,"POSTCODE":3631,"STATE_CODE":"VIC"},{"LATITUDE":-37.5786388118,"LOCALITY_NAME":"CARNGHAM","LONGITUDE":143.5716078578,"POSTCODE":3351,"STATE_CODE":"VIC"},{"LATITUDE":-37.0647094733,"LOCALITY_NAME":"CASTLEMAINE","LONGITUDE":144.2176484351,"POSTCODE":3450,"STATE_CODE":"VIC"},{"LATITUDE":-36.1013905191,"LOCALITY_NAME":"CORNISHTOWN","LONGITUDE":146.5684302743,"POSTCODE":3683,"STATE_CODE":"VIC"},{"LATITUDE":-38.2612808544,"LOCALITY_NAME":"TYABB","LONGITUDE":145.1814631205,"POSTCODE":3913,"STATE_CODE":"VIC"},{"LATITUDE":-37.5306727333,"LOCALITY_NAME":"WENDOUREE","LONGITUDE":143.8306636886,"POSTCODE":3355,"STATE_CODE":"VIC"},{"LATITUDE":-37.7738410326,"LOCALITY_NAME":"WARRANWOOD","LONGITUDE":145.2487329708,"POSTCODE":3134,"STATE_CODE":"VIC"},{"LATITUDE":-38.1342340428,"LOCALITY_NAME":"HERNE HILL","LONGITUDE":144.3234825729,"POSTCODE":3218,"STATE_CODE":"VIC"},{"LATITUDE":-38.2066055735,"LOCALITY_NAME":"YARRAGON","LONGITUDE":146.064392561,"POSTCODE":3823,"STATE_CODE":"VIC"},{"LATITUDE":-38.0837891611,"LOCALITY_NAME":"SANDHURST","LONGITUDE":145.206290546,"POSTCODE":3977,"STATE_CODE":"VIC"},{"LATITUDE":-37.5795585241,"LOCALITY_NAME":"WINTER VALLEY","LONGITUDE":143.7970503109,"POSTCODE":3358,"STATE_CODE":"VIC"},{"LATITUDE":-37.8132437152,"LOCALITY_NAME":"EASTWOOD","LONGITUDE":147.6339592727,"POSTCODE":3875,"STATE_CODE":"VIC"},{"LATITUDE":-38.2306899769,"LOCALITY_NAME":"MORWELL","LONGITUDE":146.4144495968,"POSTCODE":3840,"STATE_CODE":"VIC"},{"LATITUDE":-38.0362465187,"LOCALITY_NAME":"HAMPTON PARK","LONGITUDE":145.2657373003,"POSTCODE":3976,"STATE_CODE":"VIC"},{"LATITUDE":-37.8021285573,"LOCALITY_NAME":"COLLINGWOOD","LONGITUDE":144.9873353684,"POSTCODE":3066,"STATE_CODE":"VIC"},{"LATITUDE":-37.8241419418,"LOCALITY_NAME":"CANTERBURY","LONGITUDE":145.0765070229,"POSTCODE":3126,"STATE_CODE":"VIC"},{"LATITUDE":-38.3553600715,"LOCALITY_NAME":"MCCRAE","LONGITUDE":144.9297294444,"POSTCODE":3938,"STATE_CODE":"VIC"},{"LATITUDE":-36.9222958929,"LOCALITY_NAME":"HEATHCOTE","LONGITUDE":144.7182081493,"POSTCODE":3523,"STATE_CODE":"VIC"},{"LATITUDE":-37.8651690112,"LOCALITY_NAME":"ST KILDA EAST","LONGITUDE":145.0020475047,"POSTCODE":3183,"STATE_CODE":"VIC"},{"LATITUDE":-38.0744889412,"LOCALITY_NAME":"LOVELY BANKS","LONGITUDE":144.3315281539,"POSTCODE":3213,"STATE_CODE":"VIC"},{"LATITUDE":-38.3987376142,"LOCALITY_NAME":"MAIN RIDGE","LONGITUDE":144.9688984988,"POSTCODE":3928,"STATE_CODE":"VIC"},{"LATITUDE":-37.5553594833,"LOCALITY_NAME":"ALFREDTON","LONGITUDE":143.8003093166,"POSTCODE":3350,"STATE_CODE":"VIC"},{"LATITUDE":-37.8372295555,"LOCALITY_NAME":"PORT MELBOURNE","LONGITUDE":144.9360950661,"POSTCODE":3207,"STATE_CODE":"VIC"},{"LATITUDE":-37.7858900157,"LOCALITY_NAME":"YARRA JUNCTION","LONGITUDE":145.6182546924,"POSTCODE":3797,"STATE_CODE":"VIC"},{"LATITUDE":-37.7842714812,"LOCALITY_NAME":"PARKVILLE","LONGITUDE":144.9485624131,"POSTCODE":3052,"STATE_CODE":"VIC"},{"LATITUDE":-38.608265208,"LOCALITY_NAME":"WONTHAGGI","LONGITUDE":145.5920842721,"POSTCODE":3995,"STATE_CODE":"VIC"},{"LATITUDE":-37.7334279565,"LOCALITY_NAME":"KINGS PARK","LONGITUDE":144.7717395493,"POSTCODE":3021,"STATE_CODE":"VIC"},{"LATITUDE":-37.0094046615,"LOCALITY_NAME":"DEEP LEAD","LONGITUDE":142.7073732917,"POSTCODE":3385,"STATE_CODE":"VIC"},{"LATITUDE":-37.6562647332,"LOCALITY_NAME":"HEALESVILLE","LONGITUDE":145.519786834,"POSTCODE":3777,"STATE_CODE":"VIC"},{"LATITUDE":-37.4132683404,"LOCALITY_NAME":"NEWLYN","LONGITUDE":143.9860668311,"POSTCODE":3364,"STATE_CODE":"VIC"},{"LATITUDE":-37.7335801318,"LOCALITY_NAME":"STRATHMORE","LONGITUDE":144.9162711463,"POSTCODE":3041,"STATE_CODE":"VIC"},{"LATITUDE":-37.3526694184,"LOCALITY_NAME":"HESKET","LONGITUDE":144.6270804123,"POSTCODE":3442,"STATE_CODE":"VIC"},{"LATITUDE":-37.6406847027,"LOCALITY_NAME":"ROSS CREEK","LONGITUDE":143.7650813318,"POSTCODE":3351,"STATE_CODE":"VIC"},{"LATITUDE":-34.3081389351,"LOCALITY_NAME":"RED CLIFFS","LONGITUDE":142.196105659,"POSTCODE":3496,"STATE_CODE":"VIC"},{"LATITUDE":-36.5368992291,"LOCALITY_NAME":"TARNOOK","LONGITUDE":145.8725727335,"POSTCODE":3670,"STATE_CODE":"VIC"},{"LATITUDE":-38.3260252226,"LOCALITY_NAME":"PORTSEA","LONGITUDE":144.7172420965,"POSTCODE":3944,"STATE_CODE":"VIC"},{"LATITUDE":-37.7358024709,"LOCALITY_NAME":"GARIBALDI","LONGITUDE":143.8539887579,"POSTCODE":3352,"STATE_CODE":"VIC"},{"LATITUDE":-37.1583499003,"LOCALITY_NAME":"VAUGHAN","LONGITUDE":144.2129857148,"POSTCODE":3451,"STATE_CODE":"VIC"},{"LATITUDE":-37.743388297,"LOCALITY_NAME":"NEWMERELLA","LONGITUDE":148.4497192363,"POSTCODE":3886,"STATE_CODE":"VIC"},{"LATITUDE":-37.8821502737,"LOCALITY_NAME":"CAULFIELD EAST","LONGITUDE":145.0458232173,"POSTCODE":3145,"STATE_CODE":"VIC"},{"LATITUDE":-37.7389390387,"LOCALITY_NAME":"HEIDELBERG WEST","LONGITUDE":145.0439853625,"POSTCODE":3081,"STATE_CODE":"VIC"},{"LATITUDE":-38.3642035867,"LOCALITY_NAME":"ELLIMINYT","LONGITUDE":143.5834554659,"POSTCODE":3250,"STATE_CODE":"VIC"},{"LATITUDE":-37.7268770065,"LOCALITY_NAME":"COBURG NORTH","LONGITUDE":144.9677296897,"POSTCODE":3058,"STATE_CODE":"VIC"},{"LATITUDE":-36.9952927876,"LOCALITY_NAME":"MALDON","LONGITUDE":144.0693008743,"POSTCODE":3463,"STATE_CODE":"VIC"},{"LATITUDE":-37.8520149903,"LOCALITY_NAME":"MEREDITH","LONGITUDE":144.0690603648,"POSTCODE":3333,"STATE_CODE":"VIC"},{"LATITUDE":-38.3795801542,"LOCALITY_NAME":"RYE","LONGITUDE":144.8107799435,"POSTCODE":3941,"STATE_CODE":"VIC"},{"LATITUDE":-38.3181691282,"LOCALITY_NAME":"HAZELWOOD SOUTH","LONGITUDE":146.4565350704,"POSTCODE":3840,"STATE_CODE":"VIC"},{"LATITUDE":-38.1953971218,"LOCALITY_NAME":"KOO WEE RUP","LONGITUDE":145.491708883,"POSTCODE":3981,"STATE_CODE":"VIC"},{"LATITUDE":-37.0591564686,"LOCALITY_NAME":"MANSFIELD","LONGITUDE":146.083117766,"POSTCODE":3722,"STATE_CODE":"VIC"},{"LATITUDE":-38.2745966612,"LOCALITY_NAME":"BARWON HEADS","LONGITUDE":144.4902542036,"POSTCODE":3227,"STATE_CODE":"VIC"},{"LATITUDE":-37.650669742,"LOCALITY_NAME":"BUNINYONG","LONGITUDE":143.885440649,"POSTCODE":3357,"STATE_CODE":"VIC"},{"LATITUDE":-38.0696250889,"LOCALITY_NAME":"ROKEBY","LONGITUDE":145.9304596654,"POSTCODE":3821,"STATE_CODE":"VIC"},{"LATITUDE":-37.7520647744,"LOCALITY_NAME":"CHIRNSIDE PARK","LONGITUDE":145.3170952753,"POSTCODE":3116,"STATE_CODE":"VIC"},{"LATITUDE":-37.1395429215,"LOCALITY_NAME":"TARADALE","LONGITUDE":144.3469012433,"POSTCODE":3447,"STATE_CODE":"VIC"},{"LATITUDE":-38.0742050995,"LOCALITY_NAME":"WILLOW GROVE","LONGITUDE":146.1731399681,"POSTCODE":3825,"STATE_CODE":"VIC"},{"LATITUDE":-37.812543464,"LOCALITY_NAME":"RINGWOOD EAST","LONGITUDE":145.2522686482,"POSTCODE":3135,"STATE_CODE":"VIC"},{"LATITUDE":-38.0945620966,"LOCALITY_NAME":"BUNYIP","LONGITUDE":145.720596406,"POSTCODE":3815,"STATE_CODE":"VIC"},{"LATITUDE":-37.9035711565,"LOCALITY_NAME":"ORMOND","LONGITUDE":145.0422759488,"POSTCODE":3204,"STATE_CODE":"VIC"},{"LATITUDE":-36.3641181421,"LOCALITY_NAME":"EAST WANGARATTA","LONGITUDE":146.3776462597,"POSTCODE":3678,"STATE_CODE":"VIC"},{"LATITUDE":-37.8813010717,"LOCALITY_NAME":"CHADSTONE","LONGITUDE":145.1001178794,"POSTCODE":3148,"STATE_CODE":"VIC"},{"LATITUDE":-36.0363820552,"LOCALITY_NAME":"BUNDALONG","LONGITUDE":146.1624926926,"POSTCODE":3730,"STATE_CODE":"VIC"},{"LATITUDE":-37.8744403154,"LOCALITY_NAME":"MONBULK","LONGITUDE":145.4144296603,"POSTCODE":3793,"STATE_CODE":"VIC"},{"LATITUDE":-34.2050863031,"LOCALITY_NAME":"CABARITA","LONGITUDE":142.0873835625,"POSTCODE":3505,"STATE_CODE":"VIC"},{"LATITUDE":-35.4554135082,"LOCALITY_NAME":"LAKE BOGA","LONGITUDE":143.6361710411,"POSTCODE":3584,"STATE_CODE":"VIC"},{"LATITUDE":-37.7309773869,"LOCALITY_NAME":"BURNSIDE HEIGHTS","LONGITUDE":144.7559281224,"POSTCODE":3023,"STATE_CODE":"VIC"},{"LATITUDE":-37.0376174657,"LOCALITY_NAME":"EDENHOPE","LONGITUDE":141.292681392,"POSTCODE":3318,"STATE_CODE":"VIC"},{"LATITUDE":-35.0685671606,"LOCALITY_NAME":"OUYEN","LONGITUDE":142.3153667622,"POSTCODE":3490,"STATE_CODE":"VIC"},{"LATITUDE":-36.3667244115,"LOCALITY_NAME":"SERVICETON","LONGITUDE":141.004508972,"POSTCODE":3420,"STATE_CODE":"VIC"},{"LATITUDE":-36.0149051477,"LOCALITY_NAME":"BARMAH","LONGITUDE":144.9689584459,"POSTCODE":3639,"STATE_CODE":"VIC"},{"LATITUDE":-37.3038877358,"LOCALITY_NAME":"NEWHAM","LONGITUDE":144.5974165291,"POSTCODE":3442,"STATE_CODE":"VIC"},{"LATITUDE":-36.0030893217,"LOCALITY_NAME":"PICOLA","LONGITUDE":145.1035627934,"POSTCODE":3639,"STATE_CODE":"VIC"},{"LATITUDE":-38.3674939209,"LOCALITY_NAME":"BLAIRGOWRIE","LONGITUDE":144.7737243126,"POSTCODE":3942,"STATE_CODE":"VIC"},{"LATITUDE":-37.0921300074,"LOCALITY_NAME":"LANGKOOP","LONGITUDE":141.0507159308,"POSTCODE":3318,"STATE_CODE":"VIC"},{"LATITUDE":-38.0972369066,"LOCALITY_NAME":"NORTH SHORE","LONGITUDE":144.3718484154,"POSTCODE":3214,"STATE_CODE":"VIC"},{"LATITUDE":-36.1442031651,"LOCALITY_NAME":"CHILTERN VALLEY","LONGITUDE":146.5510042632,"POSTCODE":3683,"STATE_CODE":"VIC"},{"LATITUDE":-37.0036288007,"LOCALITY_NAME":"TOOLONDO","LONGITUDE":141.9340258439,"POSTCODE":3401,"STATE_CODE":"VIC"},{"LATITUDE":-37.6197450904,"LOCALITY_NAME":"SNAKE VALLEY","LONGITUDE":143.579821479,"POSTCODE":3351,"STATE_CODE":"VIC"},{"LATITUDE":-36.8411366174,"LOCALITY_NAME":"EPPALOCK","LONGITUDE":144.4590228201,"POSTCODE":3551,"STATE_CODE":"VIC"},{"LATITUDE":-35.8077977804,"LOCALITY_NAME":"COHUNA","LONGITUDE":144.2173205256,"POSTCODE":3568,"STATE_CODE":"VIC"},{"LATITUDE":-37.7151541043,"LOCALITY_NAME":"TAYLORS HILL","LONGITUDE":144.7528002835,"POSTCODE":3037,"STATE_CODE":"VIC"},{"LATITUDE":-37.9566183976,"LOCALITY_NAME":"DANDENONG NORTH","LONGITUDE":145.2110587184,"POSTCODE":3175,"STATE_CODE":"VIC"},{"LATITUDE":-36.9869497324,"LOCALITY_NAME":"MOONAMBEL","LONGITUDE":143.3159647637,"POSTCODE":3478,"STATE_CODE":"VIC"},{"LATITUDE":-38.5625263767,"LOCALITY_NAME":"DALYSTON","LONGITUDE":145.5449671808,"POSTCODE":3992,"STATE_CODE":"VIC"},{"LATITUDE":-38.4202729882,"LOCALITY_NAME":"ST ANDREWS BEACH","LONGITUDE":144.8340111656,"POSTCODE":3941,"STATE_CODE":"VIC"},{"LATITUDE":-37.780178166,"LOCALITY_NAME":"MOOROOLBARK","LONGITUDE":145.3217467701,"POSTCODE":3138,"STATE_CODE":"VIC"},{"LATITUDE":-36.0564811519,"LOCALITY_NAME":"PYRAMID HILL","LONGITUDE":144.1114057352,"POSTCODE":3575,"STATE_CODE":"VIC"},{"LATITUDE":-38.1655328463,"LOCALITY_NAME":"NEWCOMB","LONGITUDE":144.3927820375,"POSTCODE":3219,"STATE_CODE":"VIC"},{"LATITUDE":-37.6811354025,"LOCALITY_NAME":"CARRANBALLAC","LONGITUDE":143.1861846912,"POSTCODE":3361,"STATE_CODE":"VIC"},{"LATITUDE":-37.581917708,"LOCALITY_NAME":"CANADIAN","LONGITUDE":143.8767326226,"POSTCODE":3350,"STATE_CODE":"VIC"},{"LATITUDE":-36.1003012309,"LOCALITY_NAME":"BARNAWARTHA","LONGITUDE":146.670737788,"POSTCODE":3688,"STATE_CODE":"VIC"},{"LATITUDE":-38.4230413472,"LOCALITY_NAME":"SHOREHAM","LONGITUDE":145.046143086,"POSTCODE":3916,"STATE_CODE":"VIC"},{"LATITUDE":-37.6782819415,"LOCALITY_NAME":"SCOTSBURN","LONGITUDE":143.9323998639,"POSTCODE":3352,"STATE_CODE":"VIC"},{"LATITUDE":-38.0685367379,"LOCALITY_NAME":"LYNDHURST","LONGITUDE":145.2485262963,"POSTCODE":3975,"STATE_CODE":"VIC"},{"LATITUDE":-37.5059778548,"LOCALITY_NAME":"WHITTLESEA","LONGITUDE":145.1192679093,"POSTCODE":3757,"STATE_CODE":"VIC"},{"LATITUDE":-37.8167945954,"LOCALITY_NAME":"YARRAVILLE","LONGITUDE":144.8840221673,"POSTCODE":3013,"STATE_CODE":"VIC"},{"LATITUDE":-37.7789676827,"LOCALITY_NAME":"SEVILLE","LONGITUDE":145.4622464176,"POSTCODE":3139,"STATE_CODE":"VIC"},{"LATITUDE":-37.8765745307,"LOCALITY_NAME":"ALTONA MEADOWS","LONGITUDE":144.7779065056,"POSTCODE":3028,"STATE_CODE":"VIC"},{"LATITUDE":-37.6389902891,"LOCALITY_NAME":"YARRAMBAT","LONGITUDE":145.1333749173,"POSTCODE":3091,"STATE_CODE":"VIC"},{"LATITUDE":-38.0379576902,"LOCALITY_NAME":"EDITHVALE","LONGITUDE":145.1134200956,"POSTCODE":3196,"STATE_CODE":"VIC"},{"LATITUDE":-38.5249563587,"LOCALITY_NAME":"SAN REMO","LONGITUDE":145.3788878604,"POSTCODE":3925,"STATE_CODE":"VIC"},{"LATITUDE":-36.3789715925,"LOCALITY_NAME":"SHEPPARTON","LONGITUDE":145.404365428,"POSTCODE":3630,"STATE_CODE":"VIC"},{"LATITUDE":-37.7427796059,"LOCALITY_NAME":"PASCOE VALE SOUTH","LONGITUDE":144.9391318362,"POSTCODE":3044,"STATE_CODE":"VIC"},{"LATITUDE":-37.8513740686,"LOCALITY_NAME":"PRAHRAN","LONGITUDE":144.9983576959,"POSTCODE":3181,"STATE_CODE":"VIC"},{"LATITUDE":-37.2531201605,"LOCALITY_NAME":"STRATH CREEK","LONGITUDE":145.2226500893,"POSTCODE":3658,"STATE_CODE":"VIC"},{"LATITUDE":-36.7403722542,"LOCALITY_NAME":"NORTH BENDIGO","LONGITUDE":144.2811866707,"POSTCODE":3550,"STATE_CODE":"VIC"},{"LATITUDE":-36.7769805781,"LOCALITY_NAME":"AXEDALE","LONGITUDE":144.5029861109,"POSTCODE":3551,"STATE_CODE":"VIC"},{"LATITUDE":-38.468727742,"LOCALITY_NAME":"VENTNOR","LONGITUDE":145.1815113281,"POSTCODE":3922,"STATE_CODE":"VIC"},{"LATITUDE":-37.7706711242,"LOCALITY_NAME":"BRUNSWICK EAST","LONGITUDE":144.9753952658,"POSTCODE":3057,"STATE_CODE":"VIC"},{"LATITUDE":-36.6642766509,"LOCALITY_NAME":"HUNTLY","LONGITUDE":144.3369485443,"POSTCODE":3551,"STATE_CODE":"VIC"},{"LATITUDE":-37.1749702773,"LOCALITY_NAME":"GOUGHS BAY","LONGITUDE":146.0680845758,"POSTCODE":3723,"STATE_CODE":"VIC"},{"LATITUDE":-38.3771560067,"LOCALITY_NAME":"TOOTGAROOK","LONGITUDE":144.8505292285,"POSTCODE":3941,"STATE_CODE":"VIC"},{"LATITUDE":-37.8391230966,"LOCALITY_NAME":"BLACKBURN SOUTH","LONGITUDE":145.1458206877,"POSTCODE":3130,"STATE_CODE":"VIC"},{"LATITUDE":-37.9898574536,"LOCALITY_NAME":"DOVETON","LONGITUDE":145.2389491475,"POSTCODE":3177,"STATE_CODE":"VIC"},{"LATITUDE":-37.920437157,"LOCALITY_NAME":"MENZIES CREEK","LONGITUDE":145.4026569312,"POSTCODE":3159,"STATE_CODE":"VIC"},{"LATITUDE":-37.7580523314,"LOCALITY_NAME":"THORNBURY","LONGITUDE":145.0042254638,"POSTCODE":3071,"STATE_CODE":"VIC"},{"LATITUDE":-37.0267195704,"LOCALITY_NAME":"SEYMOUR","LONGITUDE":145.1464972964,"POSTCODE":3660,"STATE_CODE":"VIC"},{"LATITUDE":-37.9918660862,"LOCALITY_NAME":"HEXHAM","LONGITUDE":142.6794654706,"POSTCODE":3273,"STATE_CODE":"VIC"},{"LATITUDE":-37.8059687743,"LOCALITY_NAME":"ABBOTSFORD","LONGITUDE":145.001332229,"POSTCODE":3067,"STATE_CODE":"VIC"},{"LATITUDE":-38.3133997134,"LOCALITY_NAME":"CHURCHILL","LONGITUDE":146.4167617536,"POSTCODE":3842,"STATE_CODE":"VIC"},{"LATITUDE":-38.1124483032,"LOCALITY_NAME":"LONGWARRY","LONGITUDE":145.7677819998,"POSTCODE":3816,"STATE_CODE":"VIC"},{"LATITUDE":-38.4067576714,"LOCALITY_NAME":"GRANTVILLE","LONGITUDE":145.5336884222,"POSTCODE":3984,"STATE_CODE":"VIC"},{"LATITUDE":-37.5525916073,"LOCALITY_NAME":"MALLACOOTA","LONGITUDE":149.7500655102,"POSTCODE":3892,"STATE_CODE":"VIC"},{"LATITUDE":-37.7588283484,"LOCALITY_NAME":"ABERFELDIE","LONGITUDE":144.8971269629,"POSTCODE":3040,"STATE_CODE":"VIC"},{"LATITUDE":-38.1423353161,"LOCALITY_NAME":"KOLORA","LONGITUDE":142.9066654599,"POSTCODE":3265,"STATE_CODE":"VIC"},{"LATITUDE":-36.9697783131,"LOCALITY_NAME":"APSLEY","LONGITUDE":141.0850175051,"POSTCODE":3319,"STATE_CODE":"VIC"},{"LATITUDE":-38.4839695787,"LOCALITY_NAME":"TIMBOON","LONGITUDE":142.9750983968,"POSTCODE":3268,"STATE_CODE":"VIC"},{"LATITUDE":-38.2764891742,"LOCALITY_NAME":"PURNIM","LONGITUDE":142.6185547074,"POSTCODE":3278,"STATE_CODE":"VIC"},{"LATITUDE":-37.5467479489,"LOCALITY_NAME":"LUCAS","LONGITUDE":143.7783610863,"POSTCODE":3350,"STATE_CODE":"VIC"},{"LATITUDE":-36.6973578319,"LOCALITY_NAME":"POREPUNKAH","LONGITUDE":146.9118977609,"POSTCODE":3740,"STATE_CODE":"VIC"},{"LATITUDE":-38.2216966815,"LOCALITY_NAME":"YANNATHAN","LONGITUDE":145.6385635691,"POSTCODE":3981,"STATE_CODE":"VIC"},{"LATITUDE":-37.368806261,"LOCALITY_NAME":"ENSAY","LONGITUDE":147.8337956555,"POSTCODE":3895,"STATE_CODE":"VIC"},{"LATITUDE":-36.9946959486,"LOCALITY_NAME":"BARWITE","LONGITUDE":146.1856817686,"POSTCODE":3722,"STATE_CODE":"VIC"},{"LATITUDE":-38.3049436241,"LOCALITY_NAME":"HASTINGS","LONGITUDE":145.1829453177,"POSTCODE":3915,"STATE_CODE":"VIC"},{"LATITUDE":-38.3404739034,"LOCALITY_NAME":"BITTERN","LONGITUDE":145.1738779175,"POSTCODE":3918,"STATE_CODE":"VIC"},{"LATITUDE":-36.9013937768,"LOCALITY_NAME":"AVENEL","LONGITUDE":145.2371738246,"POSTCODE":3664,"STATE_CODE":"VIC"},{"LATITUDE":-36.7155481274,"LOCALITY_NAME":"HORSHAM","LONGITUDE":142.197597195,"POSTCODE":3400,"STATE_CODE":"VIC"},{"LATITUDE":-37.797943193,"LOCALITY_NAME":"FOOTSCRAY","LONGITUDE":144.8957136268,"POSTCODE":3011,"STATE_CODE":"VIC"},{"LATITUDE":-36.2933043363,"LOCALITY_NAME":"WOORAGEE","LONGITUDE":146.7341343834,"POSTCODE":3747,"STATE_CODE":"VIC"},{"LATITUDE":-36.9476887597,"LOCALITY_NAME":"NURRABIEL","LONGITUDE":142.0393904134,"POSTCODE":3401,"STATE_CODE":"VIC"},{"LATITUDE":-38.3405638498,"LOCALITY_NAME":"COLAC","LONGITUDE":143.5842850273,"POSTCODE":3250,"STATE_CODE":"VIC"},{"LATITUDE":-37.2834926036,"LOCALITY_NAME":"ARARAT","LONGITUDE":142.9301006507,"POSTCODE":3377,"STATE_CODE":"VIC"},{"LATITUDE":-38.0237000077,"LOCALITY_NAME":"LARA","LONGITUDE":144.3985296339,"POSTCODE":3212,"STATE_CODE":"VIC"},{"LATITUDE":-37.878265162,"LOCALITY_NAME":"RIPPONLEA","LONGITUDE":144.9955697087,"POSTCODE":3185,"STATE_CODE":"VIC"},{"LATITUDE":-37.6711132931,"LOCALITY_NAME":"DALLAS","LONGITUDE":144.935777206,"POSTCODE":3047,"STATE_CODE":"VIC"},{"LATITUDE":-38.0283212641,"LOCALITY_NAME":"BUNDALAGUAH","LONGITUDE":147.0199909903,"POSTCODE":3851,"STATE_CODE":"VIC"},{"LATITUDE":-37.8131640872,"LOCALITY_NAME":"LUCKNOW","LONGITUDE":147.6543383505,"POSTCODE":3875,"STATE_CODE":"VIC"},{"LATITUDE":-38.0221951946,"LOCALITY_NAME":"DANDENONG SOUTH","LONGITUDE":145.2164514208,"POSTCODE":3175,"STATE_CODE":"VIC"},{"LATITUDE":-37.8675845728,"LOCALITY_NAME":"HOPPERS CROSSING","LONGITUDE":144.6928294432,"POSTCODE":3029,"STATE_CODE":"VIC"},{"LATITUDE":-37.6999208089,"LOCALITY_NAME":"SYDENHAM","LONGITUDE":144.7655348932,"POSTCODE":3037,"STATE_CODE":"VIC"},{"LATITUDE":-37.5963366749,"LOCALITY_NAME":"HADDON","LONGITUDE":143.6973576956,"POSTCODE":3351,"STATE_CODE":"VIC"},{"LATITUDE":-37.8802796169,"LOCALITY_NAME":"ELWOOD","LONGITUDE":144.9866095817,"POSTCODE":3184,"STATE_CODE":"VIC"},{"LATITUDE":-37.92759507,"LOCALITY_NAME":"MULGRAVE","LONGITUDE":145.1770664001,"POSTCODE":3170,"STATE_CODE":"VIC"},{"LATITUDE":-36.7662544344,"LOCALITY_NAME":"STRATHDALE","LONGITUDE":144.3151211839,"POSTCODE":3550,"STATE_CODE":"VIC"},{"LATITUDE":-37.7806325712,"LOCALITY_NAME":"ALBION","LONGITUDE":144.8196120895,"POSTCODE":3020,"STATE_CODE":"VIC"},{"LATITUDE":-36.4476647871,"LOCALITY_NAME":"DIMBOOLA","LONGITUDE":142.032938266,"POSTCODE":3414,"STATE_CODE":"VIC"},{"LATITUDE":-37.818110696,"LOCALITY_NAME":"NUNAWADING","LONGITUDE":145.176569864,"POSTCODE":3131,"STATE_CODE":"VIC"},{"LATITUDE":-37.8293195505,"LOCALITY_NAME":"HAWTHORN EAST","LONGITUDE":145.0504391917,"POSTCODE":3123,"STATE_CODE":"VIC"},{"LATITUDE":-36.6207009476,"LOCALITY_NAME":"MURCHISON","LONGITUDE":145.2030249332,"POSTCODE":3610,"STATE_CODE":"VIC"},{"LATITUDE":-37.8062405125,"LOCALITY_NAME":"SEDDON","LONGITUDE":144.8914637664,"POSTCODE":3011,"STATE_CODE":"VIC"},{"LATITUDE":-37.703500424,"LOCALITY_NAME":"GLENROY","LONGITUDE":144.923885157,"POSTCODE":3046,"STATE_CODE":"VIC"},{"LATITUDE":-38.0997798314,"LOCALITY_NAME":"BELL POST HILL","LONGITUDE":144.3279133803,"POSTCODE":3215,"STATE_CODE":"VIC"},{"LATITUDE":-37.2600584947,"LOCALITY_NAME":"REEDY CREEK","LONGITUDE":145.1420845458,"POSTCODE":3658,"STATE_CODE":"VIC"},{"LATITUDE":-36.8958852283,"LOCALITY_NAME":"EDDINGTON","LONGITUDE":143.8557505928,"POSTCODE":3472,"STATE_CODE":"VIC"},{"LATITUDE":-37.0448879081,"LOCALITY_NAME":"TOOBORAC","LONGITUDE":144.7927764356,"POSTCODE":3522,"STATE_CODE":"VIC"},{"LATITUDE":-38.076933269,"LOCALITY_NAME":"MORTLAKE","LONGITUDE":142.8074302923,"POSTCODE":3272,"STATE_CODE":"VIC"},{"LATITUDE":-36.7046295024,"LOCALITY_NAME":"EPSOM","LONGITUDE":144.3133940215,"POSTCODE":3551,"STATE_CODE":"VIC"},{"LATITUDE":-37.7678133915,"LOCALITY_NAME":"MORRISONS","LONGITUDE":144.1010096806,"POSTCODE":3334,"STATE_CODE":"VIC"},{"LATITUDE":-37.6727575054,"LOCALITY_NAME":"BACCHUS MARSH","LONGITUDE":144.4313309704,"POSTCODE":3340,"STATE_CODE":"VIC"},{"LATITUDE":-37.8421472566,"LOCALITY_NAME":"TOORAK","LONGITUDE":145.014443073,"POSTCODE":3142,"STATE_CODE":"VIC"},{"LATITUDE":-37.7431747532,"LOCALITY_NAME":"HEIDELBERG HEIGHTS","LONGITUDE":145.0534354572,"POSTCODE":3081,"STATE_CODE":"VIC"},{"LATITUDE":-37.7937287691,"LOCALITY_NAME":"KENSINGTON","LONGITUDE":144.9257345262,"POSTCODE":3031,"STATE_CODE":"VIC"},{"LATITUDE":-38.1075998389,"LOCALITY_NAME":"WURRUK","LONGITUDE":147.032570217,"POSTCODE":3850,"STATE_CODE":"VIC"},{"LATITUDE":-36.5540550176,"LOCALITY_NAME":"BENALLA","LONGITUDE":145.979833303,"POSTCODE":3672,"STATE_CODE":"VIC"},{"LATITUDE":-37.8889028912,"LOCALITY_NAME":"KNOXFIELD","LONGITUDE":145.2498386192,"POSTCODE":3180,"STATE_CODE":"VIC"},{"LATITUDE":-37.7063454653,"LOCALITY_NAME":"MELTON SOUTH","LONGITUDE":144.5707849267,"POSTCODE":3338,"STATE_CODE":"VIC"},{"LATITUDE":-37.5989627588,"LOCALITY_NAME":"BALLAN","LONGITUDE":144.2261297911,"POSTCODE":3342,"STATE_CODE":"VIC"},{"LATITUDE":-37.0238450565,"LOCALITY_NAME":"DINNER PLAIN","LONGITUDE":147.2400156775,"POSTCODE":3898,"STATE_CODE":"VIC"},{"LATITUDE":-37.6679920755,"LOCALITY_NAME":"REEFTON","LONGITUDE":145.8549191637,"POSTCODE":3799,"STATE_CODE":"VIC"},{"LATITUDE":-37.0924654618,"LOCALITY_NAME":"CAMPBELLS CREEK","LONGITUDE":144.2043859205,"POSTCODE":3451,"STATE_CODE":"VIC"},{"LATITUDE":-37.4224557749,"LOCALITY_NAME":"CRESWICK","LONGITUDE":143.8895560429,"POSTCODE":3363,"STATE_CODE":"VIC"},{"LATITUDE":-38.173194264,"LOCALITY_NAME":"HIGHTON","LONGITUDE":144.312708626,"POSTCODE":3216,"STATE_CODE":"VIC"},{"LATITUDE":-38.5624623999,"LOCALITY_NAME":"YARRAM","LONGITUDE":146.6803201425,"POSTCODE":3971,"STATE_CODE":"VIC"},{"LATITUDE":-37.9210518252,"LOCALITY_NAME":"ROWVILLE","LONGITUDE":145.2487348136,"POSTCODE":3178,"STATE_CODE":"VIC"},{"LATITUDE":-37.1093558676,"LOCALITY_NAME":"MERRIJIG","LONGITUDE":146.3209708347,"POSTCODE":3723,"STATE_CODE":"VIC"},{"LATITUDE":-37.8578683586,"LOCALITY_NAME":"LAKE TYERS BEACH","LONGITUDE":148.077494622,"POSTCODE":3909,"STATE_CODE":"VIC"},{"LATITUDE":-37.8512383802,"LOCALITY_NAME":"MIDDLE PARK","LONGITUDE":144.9621199418,"POSTCODE":3206,"STATE_CODE":"VIC"},{"LATITUDE":-37.5869286307,"LOCALITY_NAME":"STEELS CREEK","LONGITUDE":145.3787874228,"POSTCODE":3775,"STATE_CODE":"VIC"},{"LATITUDE":-37.8459516681,"LOCALITY_NAME":"BAYSWATER","LONGITUDE":145.264940698,"POSTCODE":3153,"STATE_CODE":"VIC"},{"LATITUDE":-38.5188006569,"LOCALITY_NAME":"DEVON NORTH","LONGITUDE":146.6302254093,"POSTCODE":3971,"STATE_CODE":"VIC"},{"LATITUDE":-36.32945185,"LOCALITY_NAME":"NHILL","LONGITUDE":141.6448829991,"POSTCODE":3418,"STATE_CODE":"VIC"},{"LATITUDE":-38.4099469072,"LOCALITY_NAME":"FINGAL","LONGITUDE":144.8536436881,"POSTCODE":3939,"STATE_CODE":"VIC"},{"LATITUDE":-38.0380168348,"LOCALITY_NAME":"JINDIVICK","LONGITUDE":145.8966723074,"POSTCODE":3818,"STATE_CODE":"VIC"},{"LATITUDE":-38.3449165162,"LOCALITY_NAME":"JAN JUC","LONGITUDE":144.2985733797,"POSTCODE":3228,"STATE_CODE":"VIC"},{"LATITUDE":-37.6013490797,"LOCALITY_NAME":"MOUNT CLEAR","LONGITUDE":143.8687338036,"POSTCODE":3350,"STATE_CODE":"VIC"},{"LATITUDE":-38.3916829202,"LOCALITY_NAME":"BALNARRING BEACH","LONGITUDE":145.1195180021,"POSTCODE":3926,"STATE_CODE":"VIC"},{"LATITUDE":-38.4675804679,"LOCALITY_NAME":"FLINDERS","LONGITUDE":145.0098249149,"POSTCODE":3929,"STATE_CODE":"VIC"},{"LATITUDE":-37.8587721577,"LOCALITY_NAME":"LAVERTON","LONGITUDE":144.771484343,"POSTCODE":3028,"STATE_CODE":"VIC"},{"LATITUDE":-38.3559934634,"LOCALITY_NAME":"DENNINGTON","LONGITUDE":142.4465611145,"POSTCODE":3280,"STATE_CODE":"VIC"},{"LATITUDE":-37.6375897739,"LOCALITY_NAME":"HURSTBRIDGE","LONGITUDE":145.1938617318,"POSTCODE":3099,"STATE_CODE":"VIC"},{"LATITUDE":-37.7730972282,"LOCALITY_NAME":"IVANHOE EAST","LONGITUDE":145.0582445475,"POSTCODE":3079,"STATE_CODE":"VIC"},{"LATITUDE":-38.1348794368,"LOCALITY_NAME":"JUNCTION VILLAGE","LONGITUDE":145.2924235756,"POSTCODE":3977,"STATE_CODE":"VIC"},{"LATITUDE":-35.9875282617,"LOCALITY_NAME":"LEAGHUR","LONGITUDE":143.7944376747,"POSTCODE":3537,"STATE_CODE":"VIC"},{"LATITUDE":-36.1812771432,"LOCALITY_NAME":"INDIGO VALLEY","LONGITUDE":146.7450716609,"POSTCODE":3688,"STATE_CODE":"VIC"},{"LATITUDE":-38.6908625228,"LOCALITY_NAME":"VENUS BAY","LONGITUDE":145.8089896235,"POSTCODE":3956,"STATE_CODE":"VIC"},{"LATITUDE":-37.5500271162,"LOCALITY_NAME":"LAKE WENDOUREE","LONGITUDE":143.8391324307,"POSTCODE":3350,"STATE_CODE":"VIC"},{"LATITUDE":-36.3705940865,"LOCALITY_NAME":"MERRIGUM","LONGITUDE":145.1356148285,"POSTCODE":3618,"STATE_CODE":"VIC"},{"LATITUDE":-37.7668548674,"LOCALITY_NAME":"BRUNSWICK","LONGITUDE":144.9618613977,"POSTCODE":3056,"STATE_CODE":"VIC"},{"LATITUDE":-37.8306760056,"LOCALITY_NAME":"SOUTH KINGSVILLE","LONGITUDE":144.8704307586,"POSTCODE":3015,"STATE_CODE":"VIC"},{"LATITUDE":-37.8531581159,"LOCALITY_NAME":"WANTIRNA","LONGITUDE":145.2292831691,"POSTCODE":3152,"STATE_CODE":"VIC"},{"LATITUDE":-37.5626112678,"LOCALITY_NAME":"BALLARAT CENTRAL","LONGITUDE":143.8504147383,"POSTCODE":3350,"STATE_CODE":"VIC"},{"LATITUDE":-36.1372769102,"LOCALITY_NAME":"BONEGILLA","LONGITUDE":146.9951303361,"POSTCODE":3691,"STATE_CODE":"VIC"},{"LATITUDE":-37.5793169411,"LOCALITY_NAME":"MOUNT PLEASANT","LONGITUDE":143.8552699394,"POSTCODE":3350,"STATE_CODE":"VIC"},{"LATITUDE":-37.7270998054,"LOCALITY_NAME":"NORTH WARRANDYTE","LONGITUDE":145.2181614255,"POSTCODE":3113,"STATE_CODE":"VIC"},{"LATITUDE":-36.1210276376,"LOCALITY_NAME":"LAKE MARMAL","LONGITUDE":143.5268808164,"POSTCODE":3525,"STATE_CODE":"VIC"},{"LATITUDE":-38.1646947809,"LOCALITY_NAME":"SOUTH GEELONG","LONGITUDE":144.3604212695,"POSTCODE":3220,"STATE_CODE":"VIC"},{"LATITUDE":-38.0488595585,"LOCALITY_NAME":"BEACONSFIELD","LONGITUDE":145.3770026839,"POSTCODE":3807,"STATE_CODE":"VIC"},{"LATITUDE":-37.9683530103,"LOCALITY_NAME":"NOBLE PARK","LONGITUDE":145.1763672485,"POSTCODE":3174,"STATE_CODE":"VIC"},{"LATITUDE":-37.9605669514,"LOCALITY_NAME":"MAFFRA","LONGITUDE":146.9834233776,"POSTCODE":3860,"STATE_CODE":"VIC"},{"LATITUDE":-37.0094028937,"LOCALITY_NAME":"LANDSBOROUGH","LONGITUDE":143.1346812757,"POSTCODE":3384,"STATE_CODE":"VIC"},{"LATITUDE":-37.8508291715,"LOCALITY_NAME":"BURWOOD","LONGITUDE":145.1137472515,"POSTCODE":3125,"STATE_CODE":"VIC"},{"LATITUDE":-37.6017421892,"LOCALITY_NAME":"SMYTHES CREEK","LONGITUDE":143.7756150537,"POSTCODE":3351,"STATE_CODE":"VIC"},{"LATITUDE":-38.3377799109,"LOCALITY_NAME":"DROMANA","LONGITUDE":144.9721030095,"POSTCODE":3936,"STATE_CODE":"VIC"},{"LATITUDE":-35.6397675003,"LOCALITY_NAME":"KOONDROOK","LONGITUDE":144.1241818065,"POSTCODE":3580,"STATE_CODE":"VIC"},{"LATITUDE":-37.6878450156,"LOCALITY_NAME":"MADDINGLEY","LONGITUDE":144.4208715906,"POSTCODE":3340,"STATE_CODE":"VIC"},{"LATITUDE":-38.381503853,"LOCALITY_NAME":"PORT FAIRY","LONGITUDE":142.2318196998,"POSTCODE":3284,"STATE_CODE":"VIC"},{"LATITUDE":-38.2127144905,"LOCALITY_NAME":"CHARLEMONT","LONGITUDE":144.363798357,"POSTCODE":3217,"STATE_CODE":"VIC"},{"LATITUDE":-37.9782237451,"LOCALITY_NAME":"HEYFIELD","LONGITUDE":146.7839887597,"POSTCODE":3858,"STATE_CODE":"VIC"},{"LATITUDE":-37.6845734034,"LOCALITY_NAME":"NAPOLEONS","LONGITUDE":143.8284649462,"POSTCODE":3352,"STATE_CODE":"VIC"},{"LATITUDE":-37.529068142,"LOCALITY_NAME":"KALKALLO","LONGITUDE":144.9605413003,"POSTCODE":3064,"STATE_CODE":"VIC"},{"LATITUDE":-37.6899674286,"LOCALITY_NAME":"GLADSTONE PARK","LONGITUDE":144.8920417229,"POSTCODE":3043,"STATE_CODE":"VIC"},{"LATITUDE":-37.3431387186,"LOCALITY_NAME":"DAYLESFORD","LONGITUDE":144.143850584,"POSTCODE":3460,"STATE_CODE":"VIC"},{"LATITUDE":-37.9346359631,"LOCALITY_NAME":"FORGE CREEK","LONGITUDE":147.6259828025,"POSTCODE":3875,"STATE_CODE":"VIC"},{"LATITUDE":-37.7699122294,"LOCALITY_NAME":"GRANITE ROCK","LONGITUDE":147.6656259599,"POSTCODE":3875,"STATE_CODE":"VIC"},{"LATITUDE":-37.1465207107,"LOCALITY_NAME":"HALLS GAP","LONGITUDE":142.5285269322,"POSTCODE":3381,"STATE_CODE":"VIC"},{"LATITUDE":-37.6876058608,"LOCALITY_NAME":"JACANA","LONGITUDE":144.9118781632,"POSTCODE":3047,"STATE_CODE":"VIC"},{"LATITUDE":-37.8304288634,"LOCALITY_NAME":"GLADYSDALE","LONGITUDE":145.6468529706,"POSTCODE":3797,"STATE_CODE":"VIC"},{"LATITUDE":-37.9380739668,"LOCALITY_NAME":"HAMPTON EAST","LONGITUDE":145.0301071038,"POSTCODE":3188,"STATE_CODE":"VIC"},{"LATITUDE":-38.1378550914,"LOCALITY_NAME":"FYANSFORD","LONGITUDE":144.3070134328,"POSTCODE":3218,"STATE_CODE":"VIC"},{"LATITUDE":-38.3203941793,"LOCALITY_NAME":"WARNCOORT","LONGITUDE":143.7111128929,"POSTCODE":3243,"STATE_CODE":"VIC"},{"LATITUDE":-37.6993355687,"LOCALITY_NAME":"TAYLORS LAKES","LONGITUDE":144.7870948933,"POSTCODE":3038,"STATE_CODE":"VIC"},{"LATITUDE":-37.7649950177,"LOCALITY_NAME":"TEMPLESTOWE LOWER","LONGITUDE":145.1128504478,"POSTCODE":3107,"STATE_CODE":"VIC"},{"LATITUDE":-36.6151176559,"LOCALITY_NAME":"ST ARNAUD","LONGITUDE":143.2556327513,"POSTCODE":3478,"STATE_CODE":"VIC"},{"LATITUDE":-37.6643497659,"LOCALITY_NAME":"KURUNJANG","LONGITUDE":144.5885845606,"POSTCODE":3337,"STATE_CODE":"VIC"},{"LATITUDE":-36.1246293851,"LOCALITY_NAME":"WEST WODONGA","LONGITUDE":146.8515468517,"POSTCODE":3690,"STATE_CODE":"VIC"},{"LATITUDE":-38.0247618199,"LOCALITY_NAME":"TEESDALE","LONGITUDE":144.0463364979,"POSTCODE":3328,"STATE_CODE":"VIC"},{"LATITUDE":-37.7583442237,"LOCALITY_NAME":"SARSFIELD","LONGITUDE":147.7348529627,"POSTCODE":3875,"STATE_CODE":"VIC"},{"LATITUDE":-38.4645592856,"LOCALITY_NAME":"FAIRHAVEN","LONGITUDE":144.0853086765,"POSTCODE":3231,"STATE_CODE":"VIC"},{"LATITUDE":-38.4959787321,"LOCALITY_NAME":"CALROSSIE","LONGITUDE":146.6697463286,"POSTCODE":3971,"STATE_CODE":"VIC"},{"LATITUDE":-38.1397564295,"LOCALITY_NAME":"GEELONG WEST","LONGITUDE":144.3448732987,"POSTCODE":3218,"STATE_CODE":"VIC"},{"LATITUDE":-38.6622112798,"LOCALITY_NAME":"WELSHPOOL","LONGITUDE":146.434982078,"POSTCODE":3966,"STATE_CODE":"VIC"},{"LATITUDE":-37.7523296686,"LOCALITY_NAME":"ESSENDON WEST","LONGITUDE":144.8865290445,"POSTCODE":3040,"STATE_CODE":"VIC"},{"LATITUDE":-38.6011205127,"LOCALITY_NAME":"PETERBOROUGH","LONGITUDE":142.8743860465,"POSTCODE":3270,"STATE_CODE":"VIC"},{"LATITUDE":-37.0039202319,"LOCALITY_NAME":"REDESDALE","LONGITUDE":144.5182985019,"POSTCODE":3444,"STATE_CODE":"VIC"},{"LATITUDE":-38.0414203636,"LOCALITY_NAME":"TYNONG NORTH","LONGITUDE":145.6224537354,"POSTCODE":3813,"STATE_CODE":"VIC"},{"LATITUDE":-38.1882114696,"LOCALITY_NAME":"LANGWARRIN SOUTH","LONGITUDE":145.1891062069,"POSTCODE":3911,"STATE_CODE":"VIC"},{"LATITUDE":-36.1580711546,"LOCALITY_NAME":"WUNGHNU","LONGITUDE":145.4303313866,"POSTCODE":3635,"STATE_CODE":"VIC"},{"LATITUDE":-37.0845908964,"LOCALITY_NAME":"CHEWTON","LONGITUDE":144.2602655883,"POSTCODE":3451,"STATE_CODE":"VIC"},{"LATITUDE":-36.3555066754,"LOCALITY_NAME":"KORONG VALE","LONGITUDE":143.7034812847,"POSTCODE":3520,"STATE_CODE":"VIC"},{"LATITUDE":-38.436140422,"LOCALITY_NAME":"KORUMBURRA","LONGITUDE":145.8218662107,"POSTCODE":3950,"STATE_CODE":"VIC"},{"LATITUDE":-37.5053379844,"LOCALITY_NAME":"KINGLAKE CENTRAL","LONGITUDE":145.3214443466,"POSTCODE":3757,"STATE_CODE":"VIC"},{"LATITUDE":-38.3295969888,"LOCALITY_NAME":"ILLOWA","LONGITUDE":142.3982137638,"POSTCODE":3282,"STATE_CODE":"VIC"},{"LATITUDE":-38.3486685175,"LOCALITY_NAME":"JEERALANG JUNCTION","LONGITUDE":146.4082460137,"POSTCODE":3840,"STATE_CODE":"VIC"},{"LATITUDE":-37.1893421706,"LOCALITY_NAME":"MALMSBURY","LONGITUDE":144.3828414761,"POSTCODE":3446,"STATE_CODE":"VIC"},{"LATITUDE":-36.7746174044,"LOCALITY_NAME":"JUNORTOUN","LONGITUDE":144.3537924422,"POSTCODE":3551,"STATE_CODE":"VIC"},{"LATITUDE":-37.0340063043,"LOCALITY_NAME":"BONNIE DOON","LONGITUDE":145.8734910819,"POSTCODE":3720,"STATE_CODE":"VIC"},{"LATITUDE":-37.8301797899,"LOCALITY_NAME":"SILVAN","LONGITUDE":145.4330228094,"POSTCODE":3795,"STATE_CODE":"VIC"},{"LATITUDE":-37.9705113937,"LOCALITY_NAME":"SPRINGVALE SOUTH","LONGITUDE":145.1497987694,"POSTCODE":3172,"STATE_CODE":"VIC"},{"LATITUDE":-38.5049459214,"LOCALITY_NAME":"SUNDERLAND BAY","LONGITUDE":145.2770042495,"POSTCODE":3922,"STATE_CODE":"VIC"},{"LATITUDE":-36.8275669281,"LOCALITY_NAME":"LAANECOORIE","LONGITUDE":143.8989202094,"POSTCODE":3463,"STATE_CODE":"VIC"},{"LATITUDE":-37.1630501842,"LOCALITY_NAME":"KORIELLA","LONGITUDE":145.667520939,"POSTCODE":3714,"STATE_CODE":"VIC"},{"LATITUDE":-37.8280924908,"LOCALITY_NAME":"CREMORNE","LONGITUDE":144.9928648288,"POSTCODE":3121,"STATE_CODE":"VIC"},{"LATITUDE":-38.1197929246,"LOCALITY_NAME":"PORTARLINGTON","LONGITUDE":144.6523069878,"POSTCODE":3223,"STATE_CODE":"VIC"},{"LATITUDE":-35.1872571084,"LOCALITY_NAME":"NYAH WEST","LONGITUDE":143.3479345589,"POSTCODE":3595,"STATE_CODE":"VIC"},{"LATITUDE":-37.3151778216,"LOCALITY_NAME":"HEPBURN SPRINGS","LONGITUDE":144.139343671,"POSTCODE":3461,"STATE_CODE":"VIC"},{"LATITUDE":-37.1935443469,"LOCALITY_NAME":"ALEXANDRA","LONGITUDE":145.7101666113,"POSTCODE":3714,"STATE_CODE":"VIC"},{"LATITUDE":-38.2682943034,"LOCALITY_NAME":"GRASSMERE","LONGITUDE":142.5292190162,"POSTCODE":3281,"STATE_CODE":"VIC"},{"LATITUDE":-36.1961862418,"LOCALITY_NAME":"CORRYONG","LONGITUDE":147.9020876652,"POSTCODE":3707,"STATE_CODE":"VIC"},{"LATITUDE":-37.763753238,"LOCALITY_NAME":"EAGLEMONT","LONGITUDE":145.0598684952,"POSTCODE":3084,"STATE_CODE":"VIC"},{"LATITUDE":-37.7134009908,"LOCALITY_NAME":"ELTHAM","LONGITUDE":145.1546278696,"POSTCODE":3095,"STATE_CODE":"VIC"},{"LATITUDE":-36.1748821976,"LOCALITY_NAME":"KILLARA","LONGITUDE":146.8225678042,"POSTCODE":3312,"STATE_CODE":"VIC"},{"LATITUDE":-37.8730859551,"LOCALITY_NAME":"WANTIRNA SOUTH","LONGITUDE":145.2336908651,"POSTCODE":3152,"STATE_CODE":"VIC"},{"LATITUDE":-38.3694046349,"LOCALITY_NAME":"RED HILL","LONGITUDE":145.0115225631,"POSTCODE":3937,"STATE_CODE":"VIC"},{"LATITUDE":-37.9532381718,"LOCALITY_NAME":"SANDRINGHAM","LONGITUDE":145.0153806088,"POSTCODE":3191,"STATE_CODE":"VIC"},{"LATITUDE":-38.3969449872,"LOCALITY_NAME":"MIRBOO NORTH","LONGITUDE":146.1546230856,"POSTCODE":3871,"STATE_CODE":"VIC"},{"LATITUDE":-37.7907611671,"LOCALITY_NAME":"MARLO","LONGITUDE":148.5557054057,"POSTCODE":3888,"STATE_CODE":"VIC"},{"LATITUDE":-38.3347524777,"LOCALITY_NAME":"BIRREGURRA","LONGITUDE":143.7928076838,"POSTCODE":3242,"STATE_CODE":"VIC"},{"LATITUDE":-37.7108180626,"LOCALITY_NAME":"WATSONIA","LONGITUDE":145.0830700332,"POSTCODE":3087,"STATE_CODE":"VIC"},{"LATITUDE":-37.7881136176,"LOCALITY_NAME":"SUNSHINE","LONGITUDE":144.8349834286,"POSTCODE":3020,"STATE_CODE":"VIC"},{"LATITUDE":-38.3798264032,"LOCALITY_NAME":"BOOLARRA","LONGITUDE":146.2718655252,"POSTCODE":3870,"STATE_CODE":"VIC"},{"LATITUDE":-37.779843291,"LOCALITY_NAME":"ALPHINGTON","LONGITUDE":145.028181639,"POSTCODE":3078,"STATE_CODE":"VIC"},{"LATITUDE":-37.8842818479,"LOCALITY_NAME":"CAULFIELD","LONGITUDE":145.0263062345,"POSTCODE":3162,"STATE_CODE":"VIC"},{"LATITUDE":-37.0698432732,"LOCALITY_NAME":"MCKENZIE HILL","LONGITUDE":144.1879017175,"POSTCODE":3451,"STATE_CODE":"VIC"},{"LATITUDE":-37.4250338491,"LOCALITY_NAME":"LEARMONTH","LONGITUDE":143.7187983614,"POSTCODE":3352,"STATE_CODE":"VIC"},{"LATITUDE":-37.2910467901,"LOCALITY_NAME":"CLUNES","LONGITUDE":143.7840207986,"POSTCODE":3370,"STATE_CODE":"VIC"},{"LATITUDE":-36.7327200628,"LOCALITY_NAME":"TAWONGA SOUTH","LONGITUDE":147.1519954995,"POSTCODE":3698,"STATE_CODE":"VIC"},{"LATITUDE":-37.2030734762,"LOCALITY_NAME":"BENLOCH","LONGITUDE":144.6864446001,"POSTCODE":3435,"STATE_CODE":"VIC"},{"LATITUDE":-36.7866226055,"LOCALITY_NAME":"NAGAMBIE","LONGITUDE":145.1560071769,"POSTCODE":3608,"STATE_CODE":"VIC"},{"LATITUDE":-37.7553465975,"LOCALITY_NAME":"BEMM RIVER","LONGITUDE":148.9624821392,"POSTCODE":3889,"STATE_CODE":"VIC"},{"LATITUDE":-37.9507531527,"LOCALITY_NAME":"GEMBROOK","LONGITUDE":145.5550866308,"POSTCODE":3783,"STATE_CODE":"VIC"},{"LATITUDE":-36.4694527387,"LOCALITY_NAME":"KIALLA WEST","LONGITUDE":145.3900655262,"POSTCODE":3631,"STATE_CODE":"VIC"},{"LATITUDE":-37.9654142093,"LOCALITY_NAME":"STRATFORD","LONGITUDE":147.0892211864,"POSTCODE":3862,"STATE_CODE":"VIC"},{"LATITUDE":-37.9385302879,"LOCALITY_NAME":"CLARINDA","LONGITUDE":145.1050701988,"POSTCODE":3169,"STATE_CODE":"VIC"},{"LATITUDE":-37.8641686866,"LOCALITY_NAME":"SEAHOLME","LONGITUDE":144.8436203877,"POSTCODE":3018,"STATE_CODE":"VIC"},{"LATITUDE":-37.7674054383,"LOCALITY_NAME":"DEER PARK","LONGITUDE":144.7664562251,"POSTCODE":3023,"STATE_CODE":"VIC"},{"LATITUDE":-38.0905656666,"LOCALITY_NAME":"NORLANE","LONGITUDE":144.3529834004,"POSTCODE":3214,"STATE_CODE":"VIC"},{"LATITUDE":-37.8012541809,"LOCALITY_NAME":"FITZROY","LONGITUDE":144.9791773585,"POSTCODE":3065,"STATE_CODE":"VIC"},{"LATITUDE":-38.3238320477,"LOCALITY_NAME":"NYORA","LONGITUDE":145.6735641123,"POSTCODE":3987,"STATE_CODE":"VIC"},{"LATITUDE":-37.6387622901,"LOCALITY_NAME":"CAMBRIAN HILL","LONGITUDE":143.8203112406,"POSTCODE":3352,"STATE_CODE":"VIC"},{"LATITUDE":-37.4814163418,"LOCALITY_NAME":"KINGLAKE WEST","LONGITUDE":145.2566539036,"POSTCODE":3757,"STATE_CODE":"VIC"},{"LATITUDE":-38.2249878394,"LOCALITY_NAME":"BUCKLEY","LONGITUDE":144.0846878257,"POSTCODE":3240,"STATE_CODE":"VIC"},{"LATITUDE":-37.6009275686,"LOCALITY_NAME":"COLERAINE","LONGITUDE":141.6899134969,"POSTCODE":3315,"STATE_CODE":"VIC"},{"LATITUDE":-38.1386793053,"LOCALITY_NAME":"CRANBOURNE SOUTH","LONGITUDE":145.2425208832,"POSTCODE":3977,"STATE_CODE":"VIC"},{"LATITUDE":-37.9321521477,"LOCALITY_NAME":"CLEMATIS","LONGITUDE":145.4201820381,"POSTCODE":3782,"STATE_CODE":"VIC"},{"LATITUDE":-37.9550353269,"LOCALITY_NAME":"WERRIBEE SOUTH","LONGITUDE":144.7032267659,"POSTCODE":3030,"STATE_CODE":"VIC"},{"LATITUDE":-37.7020181301,"LOCALITY_NAME":"TULLAMARINE","LONGITUDE":144.8739593563,"POSTCODE":3043,"STATE_CODE":"VIC"},{"LATITUDE":-38.4142289014,"LOCALITY_NAME":"CORINELLA","LONGITUDE":145.4340156916,"POSTCODE":3984,"STATE_CODE":"VIC"},{"LATITUDE":-37.0384719483,"LOCALITY_NAME":"HILLDENE","LONGITUDE":145.0493540289,"POSTCODE":3660,"STATE_CODE":"VIC"},{"LATITUDE":-36.53712854,"LOCALITY_NAME":"KURTING","LONGITUDE":143.8185537234,"POSTCODE":3517,"STATE_CODE":"VIC"},{"LATITUDE":-37.9178721837,"LOCALITY_NAME":"RAYMOND ISLAND","LONGITUDE":147.7334635012,"POSTCODE":3880,"STATE_CODE":"VIC"},{"LATITUDE":-37.4873465216,"LOCALITY_NAME":"BULLENGAROOK","LONGITUDE":144.5023495926,"POSTCODE":3437,"STATE_CODE":"VIC"},{"LATITUDE":-38.0365761264,"LOCALITY_NAME":"LABERTOUCHE","LONGITUDE":145.8003097124,"POSTCODE":3816,"STATE_CODE":"VIC"},{"LATITUDE":-38.0500375423,"LOCALITY_NAME":"CHELSEA","LONGITUDE":145.120318105,"POSTCODE":3196,"STATE_CODE":"VIC"},{"LATITUDE":-38.0174779356,"LOCALITY_NAME":"NEERIM SOUTH","LONGITUDE":145.9582948646,"POSTCODE":3831,"STATE_CODE":"VIC"},{"LATITUDE":-38.7219486822,"LOCALITY_NAME":"SKENES CREEK","LONGITUDE":143.7139777662,"POSTCODE":3233,"STATE_CODE":"VIC"},{"LATITUDE":-36.8380578246,"LOCALITY_NAME":"KARNAK","LONGITUDE":141.487115015,"POSTCODE":3401,"STATE_CODE":"VIC"},{"LATITUDE":-36.3369522053,"LOCALITY_NAME":"KERGUNYAH","LONGITUDE":147.0211963646,"POSTCODE":3691,"STATE_CODE":"VIC"},{"LATITUDE":-36.9484056663,"LOCALITY_NAME":"BARKLY","LONGITUDE":143.2123604194,"POSTCODE":3384,"STATE_CODE":"VIC"},{"LATITUDE":-35.6809570046,"LOCALITY_NAME":"TEAL POINT","LONGITUDE":144.0726451152,"POSTCODE":3579,"STATE_CODE":"VIC"},{"LATITUDE":-37.9039278451,"LOCALITY_NAME":"TECOMA","LONGITUDE":145.3445833561,"POSTCODE":3160,"STATE_CODE":"VIC"},{"LATITUDE":-37.6834160147,"LOCALITY_NAME":"MELTON","LONGITUDE":144.5834584576,"POSTCODE":3337,"STATE_CODE":"VIC"},{"LATITUDE":-36.0204345687,"LOCALITY_NAME":"MINMINDIE","LONGITUDE":143.750194586,"POSTCODE":3537,"STATE_CODE":"VIC"},{"LATITUDE":-37.5169668654,"LOCALITY_NAME":"MITCHELL PARK","LONGITUDE":143.7996655628,"POSTCODE":3355,"STATE_CODE":"VIC"},{"LATITUDE":-38.4707165175,"LOCALITY_NAME":"MIRBOO","LONGITUDE":146.233518318,"POSTCODE":3871,"STATE_CODE":"VIC"},{"LATITUDE":-37.4014813112,"LOCALITY_NAME":"MONEGEETTA","LONGITUDE":144.7702375584,"POSTCODE":3433,"STATE_CODE":"VIC"},{"LATITUDE":-36.0867298246,"LOCALITY_NAME":"NUMURKAH","LONGITUDE":145.4417765259,"POSTCODE":3636,"STATE_CODE":"VIC"},{"LATITUDE":-38.6542099364,"LOCALITY_NAME":"HARMERS HAVEN","LONGITUDE":145.5747894558,"POSTCODE":3995,"STATE_CODE":"VIC"},{"LATITUDE":-37.8060571971,"LOCALITY_NAME":"BLACKBURN NORTH","LONGITUDE":145.1545064872,"POSTCODE":3130,"STATE_CODE":"VIC"},{"LATITUDE":-37.5495082202,"LOCALITY_NAME":"SOLDIERS HILL","LONGITUDE":143.8591227056,"POSTCODE":3350,"STATE_CODE":"VIC"},{"LATITUDE":-37.7990734363,"LOCALITY_NAME":"NORTH MELBOURNE","LONGITUDE":144.9485525664,"POSTCODE":3051,"STATE_CODE":"VIC"},{"LATITUDE":-36.1661044324,"LOCALITY_NAME":"LENEVA","LONGITUDE":146.8874304414,"POSTCODE":3691,"STATE_CODE":"VIC"},{"LATITUDE":-37.9242379684,"LOCALITY_NAME":"ANAKIE","LONGITUDE":144.2570038378,"POSTCODE":3213,"STATE_CODE":"VIC"},{"LATITUDE":-38.1552369942,"LOCALITY_NAME":"ROSEDALE","LONGITUDE":146.7837793432,"POSTCODE":3847,"STATE_CODE":"VIC"},{"LATITUDE":-38.0971044572,"LOCALITY_NAME":"HAWKESDALE","LONGITUDE":142.3059436572,"POSTCODE":3287,"STATE_CODE":"VIC"},{"LATITUDE":-34.2156251551,"LOCALITY_NAME":"NICHOLS POINT","LONGITUDE":142.2067323611,"POSTCODE":3501,"STATE_CODE":"VIC"},{"LATITUDE":-37.8286703123,"LOCALITY_NAME":"SPOTSWOOD","LONGITUDE":144.880394963,"POSTCODE":3015,"STATE_CODE":"VIC"},{"LATITUDE":-37.0306973385,"LOCALITY_NAME":"ALMA","LONGITUDE":143.6841185076,"POSTCODE":3465,"STATE_CODE":"VIC"},{"LATITUDE":-38.4645012408,"LOCALITY_NAME":"SCOTTS CREEK","LONGITUDE":143.0842753528,"POSTCODE":3267,"STATE_CODE":"VIC"},{"LATITUDE":-36.7837406044,"LOCALITY_NAME":"LIMA EAST","LONGITUDE":145.9740794587,"POSTCODE":3673,"STATE_CODE":"VIC"},{"LATITUDE":-37.481483405,"LOCALITY_NAME":"DARGO","LONGITUDE":147.2441561689,"POSTCODE":3862,"STATE_CODE":"VIC"},{"LATITUDE":-36.7920316051,"LOCALITY_NAME":"BEALIBA","LONGITUDE":143.5482783662,"POSTCODE":3475,"STATE_CODE":"VIC"},{"LATITUDE":-36.3611359328,"LOCALITY_NAME":"WALLUP","LONGITUDE":142.2586591891,"POSTCODE":3401,"STATE_CODE":"VIC"},{"LATITUDE":-38.2988184277,"LOCALITY_NAME":"CHILDERS","LONGITUDE":146.1011136555,"POSTCODE":3824,"STATE_CODE":"VIC"},{"LATITUDE":-36.9492908395,"LOCALITY_NAME":"GREENS CREEK","LONGITUDE":142.9176174118,"POSTCODE":3387,"STATE_CODE":"VIC"},{"LATITUDE":-36.734538961,"LOCALITY_NAME":"ASCOT","LONGITUDE":144.3032226747,"POSTCODE":3364,"STATE_CODE":"VIC"},{"LATITUDE":-36.7939942487,"LOCALITY_NAME":"TOOAN","LONGITUDE":141.8059252993,"POSTCODE":3409,"STATE_CODE":"VIC"},{"LATITUDE":-37.2034810046,"LOCALITY_NAME":"MOUNT GLASGOW","LONGITUDE":143.7476583266,"POSTCODE":3371,"STATE_CODE":"VIC"},{"LATITUDE":-36.8049015352,"LOCALITY_NAME":"STUART MILL","LONGITUDE":143.291430008,"POSTCODE":3477,"STATE_CODE":"VIC"},{"LATITUDE":-37.7674093348,"LOCALITY_NAME":"RAVENHALL","LONGITUDE":144.7476452362,"POSTCODE":3023,"STATE_CODE":"VIC"},{"LATITUDE":-37.8259836605,"LOCALITY_NAME":"LAVERTON NORTH","LONGITUDE":144.7959156471,"POSTCODE":3026,"STATE_CODE":"VIC"},{"LATITUDE":-37.3996255319,"LOCALITY_NAME":"MIRRANATWA","LONGITUDE":142.3943405908,"POSTCODE":3294,"STATE_CODE":"VIC"},{"LATITUDE":-36.9601279965,"LOCALITY_NAME":"NORTHWOOD","LONGITUDE":145.0964145633,"POSTCODE":3660,"STATE_CODE":"VIC"},{"LATITUDE":-37.20260046,"LOCALITY_NAME":"TAYLOR BAY","LONGITUDE":145.8816084224,"POSTCODE":3713,"STATE_CODE":"VIC"},{"LATITUDE":-37.76013364,"LOCALITY_NAME":"TEMPLESTOWE","LONGITUDE":145.1458160076,"POSTCODE":3106,"STATE_CODE":"VIC"},{"LATITUDE":-37.261946862,"LOCALITY_NAME":"THORNTON","LONGITUDE":145.8078749647,"POSTCODE":3712,"STATE_CODE":"VIC"},{"LATITUDE":-37.4261190607,"LOCALITY_NAME":"MACEDON","LONGITUDE":144.5637619577,"POSTCODE":3440,"STATE_CODE":"VIC"},{"LATITUDE":-38.3405419024,"LOCALITY_NAME":"POOWONG","LONGITUDE":145.766496833,"POSTCODE":3988,"STATE_CODE":"VIC"},{"LATITUDE":-38.3078767488,"LOCALITY_NAME":"CASHMORE","LONGITUDE":141.5197933565,"POSTCODE":3305,"STATE_CODE":"VIC"},{"LATITUDE":-38.49550492,"LOCALITY_NAME":"SUNSET STRIP","LONGITUDE":145.2668328957,"POSTCODE":3922,"STATE_CODE":"VIC"},{"LATITUDE":-37.102914229,"LOCALITY_NAME":"TALLAROOK","LONGITUDE":145.0987749086,"POSTCODE":3659,"STATE_CODE":"VIC"},{"LATITUDE":-37.3883904337,"LOCALITY_NAME":"TRENTHAM","LONGITUDE":144.3235988476,"POSTCODE":3458,"STATE_CODE":"VIC"},{"LATITUDE":-36.7297724195,"LOCALITY_NAME":"WHITE HILLS","LONGITUDE":144.3024838758,"POSTCODE":3550,"STATE_CODE":"VIC"},{"LATITUDE":-37.6684955165,"LOCALITY_NAME":"PLENTY","LONGITUDE":145.1186873626,"POSTCODE":3090,"STATE_CODE":"VIC"},{"LATITUDE":-36.4396545366,"LOCALITY_NAME":"TATURA","LONGITUDE":145.2306726771,"POSTCODE":3616,"STATE_CODE":"VIC"},{"LATITUDE":-37.6586327589,"LOCALITY_NAME":"COOLAROO","LONGITUDE":144.9333529389,"POSTCODE":3048,"STATE_CODE":"VIC"},{"LATITUDE":-36.7133218577,"LOCALITY_NAME":"JACKASS FLAT","LONGITUDE":144.2823053711,"POSTCODE":3556,"STATE_CODE":"VIC"},{"LATITUDE":-36.7400841409,"LOCALITY_NAME":"MARONG","LONGITUDE":144.1320719703,"POSTCODE":3515,"STATE_CODE":"VIC"},{"LATITUDE":-36.3631279867,"LOCALITY_NAME":"GRAHAMVALE","LONGITUDE":145.4415663155,"POSTCODE":3631,"STATE_CODE":"VIC"},{"LATITUDE":-37.2647897819,"LOCALITY_NAME":"BIG HILL","LONGITUDE":144.1836127872,"POSTCODE":3231,"STATE_CODE":"VIC"},{"LATITUDE":-37.6508360146,"LOCALITY_NAME":"MEADOW HEIGHTS","LONGITUDE":144.919696925,"POSTCODE":3048,"STATE_CODE":"VIC"},{"LATITUDE":-37.6966870207,"LOCALITY_NAME":"HILLSIDE","LONGITUDE":144.8373291795,"POSTCODE":3037,"STATE_CODE":"VIC"},{"LATITUDE":-37.7735894494,"LOCALITY_NAME":"WESBURN","LONGITUDE":145.644857297,"POSTCODE":3799,"STATE_CODE":"VIC"},{"LATITUDE":-37.5342817248,"LOCALITY_NAME":"LAKE GOLDSMITH","LONGITUDE":143.3882256765,"POSTCODE":3373,"STATE_CODE":"VIC"},{"LATITUDE":-37.7339427992,"LOCALITY_NAME":"KEALBA","LONGITUDE":144.8242142422,"POSTCODE":3021,"STATE_CODE":"VIC"},{"LATITUDE":-37.2667335937,"LOCALITY_NAME":"MOUNT LONARCH","LONGITUDE":143.3802041253,"POSTCODE":3468,"STATE_CODE":"VIC"},{"LATITUDE":-37.8830508603,"LOCALITY_NAME":"MACCLESFIELD","LONGITUDE":145.4825184063,"POSTCODE":3782,"STATE_CODE":"VIC"},{"LATITUDE":-38.1108756483,"LOCALITY_NAME":"SKYE","LONGITUDE":145.1981488037,"POSTCODE":3977,"STATE_CODE":"VIC"},{"LATITUDE":-37.8536652722,"LOCALITY_NAME":"BURWOOD EAST","LONGITUDE":145.1496564041,"POSTCODE":3151,"STATE_CODE":"VIC"},{"LATITUDE":-37.3104309996,"LOCALITY_NAME":"DORODONG","LONGITUDE":141.0536493225,"POSTCODE":3312,"STATE_CODE":"VIC"},{"LATITUDE":-38.17694169,"LOCALITY_NAME":"WHITTINGTON","LONGITUDE":144.3910287462,"POSTCODE":3219,"STATE_CODE":"VIC"},{"LATITUDE":-38.410872077,"LOCALITY_NAME":"ANGLESEA","LONGITUDE":144.1797204788,"POSTCODE":3230,"STATE_CODE":"VIC"},{"LATITUDE":-37.5499251522,"LOCALITY_NAME":"BLACK HILL","LONGITUDE":143.8696506206,"POSTCODE":3350,"STATE_CODE":"VIC"},{"LATITUDE":-37.8579079397,"LOCALITY_NAME":"ST KILDA WEST","LONGITUDE":144.971469515,"POSTCODE":3182,"STATE_CODE":"VIC"},{"LATITUDE":-37.7044002144,"LOCALITY_NAME":"GOWANBRAE","LONGITUDE":144.8970543495,"POSTCODE":3043,"STATE_CODE":"VIC"},{"LATITUDE":-37.8090507181,"LOCALITY_NAME":"WEST MELBOURNE","LONGITUDE":144.9483896697,"POSTCODE":3003,"STATE_CODE":"VIC"},{"LATITUDE":-36.3612198108,"LOCALITY_NAME":"BEECHWORTH","LONGITUDE":146.6882644225,"POSTCODE":3747,"STATE_CODE":"VIC"},{"LATITUDE":-37.8744070292,"LOCALITY_NAME":"KALIMNA","LONGITUDE":147.9685479168,"POSTCODE":3909,"STATE_CODE":"VIC"},{"LATITUDE":-37.7757549941,"LOCALITY_NAME":"CROYDON HILLS","LONGITUDE":145.267008891,"POSTCODE":3136,"STATE_CODE":"VIC"},{"LATITUDE":-35.9993845728,"LOCALITY_NAME":"GOORAMADDA","LONGITUDE":146.5701385341,"POSTCODE":3685,"STATE_CODE":"VIC"},{"LATITUDE":-37.4751505714,"LOCALITY_NAME":"BLACKWOOD","LONGITUDE":144.3069780454,"POSTCODE":3458,"STATE_CODE":"VIC"},{"LATITUDE":-37.4125975995,"LOCALITY_NAME":"ERCILDOUNE","LONGITUDE":143.6049839486,"POSTCODE":3352,"STATE_CODE":"VIC"},{"LATITUDE":-37.180472656,"LOCALITY_NAME":"ELMHURST","LONGITUDE":143.2524058184,"POSTCODE":3469,"STATE_CODE":"VIC"},{"LATITUDE":-38.4352324507,"LOCALITY_NAME":"CORONET BAY","LONGITUDE":145.4419068164,"POSTCODE":3984,"STATE_CODE":"VIC"},{"LATITUDE":-36.0054111251,"LOCALITY_NAME":"CARLYLE","LONGITUDE":146.4931132941,"POSTCODE":3685,"STATE_CODE":"VIC"},{"LATITUDE":-38.500051277,"LOCALITY_NAME":"SMITHS BEACH","LONGITUDE":145.2563922136,"POSTCODE":3922,"STATE_CODE":"VIC"},{"LATITUDE":-37.2896597603,"LOCALITY_NAME":"GLENLYON","LONGITUDE":144.2435719618,"POSTCODE":3461,"STATE_CODE":"VIC"},{"LATITUDE":-38.5475116756,"LOCALITY_NAME":"WOODSIDE BEACH","LONGITUDE":146.9759717955,"POSTCODE":3874,"STATE_CODE":"VIC"},{"LATITUDE":-37.152557044,"LOCALITY_NAME":"GREAT WESTERN","LONGITUDE":142.85071251,"POSTCODE":3374,"STATE_CODE":"VIC"},{"LATITUDE":-37.8201464808,"LOCALITY_NAME":"BROOKLYN","LONGITUDE":144.8438046713,"POSTCODE":3012,"STATE_CODE":"VIC"},{"LATITUDE":-37.8206387417,"LOCALITY_NAME":"BLACKBURN","LONGITUDE":145.1508267174,"POSTCODE":3130,"STATE_CODE":"VIC"},{"LATITUDE":-38.2280390717,"LOCALITY_NAME":"WARRION","LONGITUDE":143.560240987,"POSTCODE":3249,"STATE_CODE":"VIC"},{"LATITUDE":-38.0875702134,"LOCALITY_NAME":"TYNONG","LONGITUDE":145.6250567408,"POSTCODE":3813,"STATE_CODE":"VIC"},{"LATITUDE":-36.9822188864,"LOCALITY_NAME":"WALMER","LONGITUDE":144.1625714639,"POSTCODE":3463,"STATE_CODE":"VIC"},{"LATITUDE":-38.2217278575,"LOCALITY_NAME":"WALLINGTON","LONGITUDE":144.5221045882,"POSTCODE":3222,"STATE_CODE":"VIC"},{"LATITUDE":-36.4163160838,"LOCALITY_NAME":"WEDDERBURN","LONGITUDE":143.6144990514,"POSTCODE":3518,"STATE_CODE":"VIC"},{"LATITUDE":-37.8276176188,"LOCALITY_NAME":"BAYSWATER NORTH","LONGITUDE":145.2809602077,"POSTCODE":3153,"STATE_CODE":"VIC"},{"LATITUDE":-37.7726536276,"LOCALITY_NAME":"NORTHCOTE","LONGITUDE":145.0004409681,"POSTCODE":3070,"STATE_CODE":"VIC"},{"LATITUDE":-38.2762829606,"LOCALITY_NAME":"POINT LONSDALE","LONGITUDE":144.6116646488,"POSTCODE":3225,"STATE_CODE":"VIC"},{"LATITUDE":-36.3279168641,"LOCALITY_NAME":"NORTH WANGARATTA","LONGITUDE":146.353259004,"POSTCODE":3678,"STATE_CODE":"VIC"},{"LATITUDE":-38.3119279009,"LOCALITY_NAME":"PORTLAND NORTH","LONGITUDE":141.5884105712,"POSTCODE":3305,"STATE_CODE":"VIC"},{"LATITUDE":-36.7691207243,"LOCALITY_NAME":"KENNINGTON","LONGITUDE":144.3013564611,"POSTCODE":3550,"STATE_CODE":"VIC"},{"LATITUDE":-37.8547158348,"LOCALITY_NAME":"VERMONT SOUTH","LONGITUDE":145.1852705779,"POSTCODE":3133,"STATE_CODE":"VIC"},{"LATITUDE":-38.0715229719,"LOCALITY_NAME":"CORIO","LONGITUDE":144.3590111106,"POSTCODE":3214,"STATE_CODE":"VIC"},{"LATITUDE":-37.7809865062,"LOCALITY_NAME":"PARK ORCHARDS","LONGITUDE":145.2170198724,"POSTCODE":3114,"STATE_CODE":"VIC"},{"LATITUDE":-37.0416681505,"LOCALITY_NAME":"BRIMPAEN","LONGITUDE":142.22927443,"POSTCODE":3401,"STATE_CODE":"VIC"},{"LATITUDE":-37.3979350607,"LOCALITY_NAME":"NEWLYN NORTH","LONGITUDE":144.0000699096,"POSTCODE":3364,"STATE_CODE":"VIC"},{"LATITUDE":-37.6342687996,"LOCALITY_NAME":"BULLA","LONGITUDE":144.803913892,"POSTCODE":3428,"STATE_CODE":"VIC"},{"LATITUDE":-38.6832326911,"LOCALITY_NAME":"LAVERS HILL","LONGITUDE":143.3826481951,"POSTCODE":3238,"STATE_CODE":"VIC"},{"LATITUDE":-36.8998891232,"LOCALITY_NAME":"MIGA LAKE","LONGITUDE":141.6301591409,"POSTCODE":3409,"STATE_CODE":"VIC"},{"LATITUDE":-37.1589044334,"LOCALITY_NAME":"HARROW","LONGITUDE":141.5982189971,"POSTCODE":3317,"STATE_CODE":"VIC"},{"LATITUDE":-38.0219706087,"LOCALITY_NAME":"ASPENDALE","LONGITUDE":145.1009351887,"POSTCODE":3195,"STATE_CODE":"VIC"},{"LATITUDE":-38.3111285848,"LOCALITY_NAME":"GHERANG","LONGITUDE":144.0926283497,"POSTCODE":3240,"STATE_CODE":"VIC"},{"LATITUDE":-37.0427096364,"LOCALITY_NAME":"CARISBROOK","LONGITUDE":143.8151677152,"POSTCODE":3464,"STATE_CODE":"VIC"},{"LATITUDE":-36.2576462545,"LOCALITY_NAME":"KIEWA","LONGITUDE":147.0090985576,"POSTCODE":3691,"STATE_CODE":"VIC"},{"LATITUDE":-37.5895579816,"LOCALITY_NAME":"STONELEIGH","LONGITUDE":143.2209276594,"POSTCODE":3373,"STATE_CODE":"VIC"},{"LATITUDE":-38.5094684725,"LOCALITY_NAME":"RYANSTON","LONGITUDE":145.5872942948,"POSTCODE":3992,"STATE_CODE":"VIC"},{"LATITUDE":-37.9601824093,"LOCALITY_NAME":"LITTLE RIVER","LONGITUDE":144.4960822236,"POSTCODE":3211,"STATE_CODE":"VIC"},{"LATITUDE":-36.7741248883,"LOCALITY_NAME":"LONGLEA","LONGITUDE":144.4293232983,"POSTCODE":3551,"STATE_CODE":"VIC"},{"LATITUDE":-37.0131165397,"LOCALITY_NAME":"WOMBELANO","LONGITUDE":141.5876150158,"POSTCODE":3409,"STATE_CODE":"VIC"},{"LATITUDE":-37.1265616735,"LOCALITY_NAME":"NOWHERE CREEK","LONGITUDE":143.2959479375,"POSTCODE":3469,"STATE_CODE":"VIC"},{"LATITUDE":-38.2060900841,"LOCALITY_NAME":"TOORADIN","LONGITUDE":145.3805970054,"POSTCODE":3980,"STATE_CODE":"VIC"},{"LATITUDE":-37.2707650792,"LOCALITY_NAME":"COBAW","LONGITUDE":144.6352974859,"POSTCODE":3442,"STATE_CODE":"VIC"},{"LATITUDE":-37.2395613539,"LOCALITY_NAME":"DRUMMOND","LONGITUDE":144.3172782225,"POSTCODE":3461,"STATE_CODE":"VIC"},{"LATITUDE":-37.3672236102,"LOCALITY_NAME":"MUSK","LONGITUDE":144.1979430789,"POSTCODE":3461,"STATE_CODE":"VIC"},{"LATITUDE":-38.5087773252,"LOCALITY_NAME":"SURF BEACH","LONGITUDE":145.2890965891,"POSTCODE":3922,"STATE_CODE":"VIC"},{"LATITUDE":-38.5127668261,"LOCALITY_NAME":"NEWHAVEN","LONGITUDE":145.3534196079,"POSTCODE":3925,"STATE_CODE":"VIC"},{"LATITUDE":-37.3978296289,"LOCALITY_NAME":"BULLARTO","LONGITUDE":144.2177839891,"POSTCODE":3461,"STATE_CODE":"VIC"},{"LATITUDE":-37.9766711582,"LOCALITY_NAME":"ENDEAVOUR HILLS","LONGITUDE":145.2606579617,"POSTCODE":3802,"STATE_CODE":"VIC"},{"LATITUDE":-37.9720866999,"LOCALITY_NAME":"BLACK ROCK","LONGITUDE":145.0186868637,"POSTCODE":3193,"STATE_CODE":"VIC"},{"LATITUDE":-38.1594105217,"LOCALITY_NAME":"EAST GEELONG","LONGITUDE":144.3760000696,"POSTCODE":3219,"STATE_CODE":"VIC"},{"LATITUDE":-37.8131822714,"LOCALITY_NAME":"EAST MELBOURNE","LONGITUDE":144.9837995456,"POSTCODE":3002,"STATE_CODE":"VIC"},{"LATITUDE":-37.3095144594,"LOCALITY_NAME":"HEPBURN","LONGITUDE":144.1312547515,"POSTCODE":3461,"STATE_CODE":"VIC"},{"LATITUDE":-37.5642399959,"LOCALITY_NAME":"NEWINGTON","LONGITUDE":143.8345841501,"POSTCODE":3350,"STATE_CODE":"VIC"},{"LATITUDE":-38.5570883108,"LOCALITY_NAME":"TURTONS CREEK","LONGITUDE":146.2241594457,"POSTCODE":3960,"STATE_CODE":"VIC"},{"LATITUDE":-37.5162633585,"LOCALITY_NAME":"CARDIGAN VILLAGE","LONGITUDE":143.7086873191,"POSTCODE":3352,"STATE_CODE":"VIC"},{"LATITUDE":-36.5360772205,"LOCALITY_NAME":"RAYWOOD","LONGITUDE":144.2024412116,"POSTCODE":3570,"STATE_CODE":"VIC"},{"LATITUDE":-36.9538723255,"LOCALITY_NAME":"RUFFY","LONGITUDE":145.5051057822,"POSTCODE":3666,"STATE_CODE":"VIC"},{"LATITUDE":-36.8780312008,"LOCALITY_NAME":"RAVENSWOOD","LONGITUDE":144.2070841125,"POSTCODE":3453,"STATE_CODE":"VIC"},{"LATITUDE":-37.1951386242,"LOCALITY_NAME":"POMONAL","LONGITUDE":142.609922822,"POSTCODE":3381,"STATE_CODE":"VIC"},{"LATITUDE":-36.8953075887,"LOCALITY_NAME":"SEDGWICK","LONGITUDE":144.321569047,"POSTCODE":3551,"STATE_CODE":"VIC"},{"LATITUDE":-38.0147419163,"LOCALITY_NAME":"GUYS HILL","LONGITUDE":145.3919239878,"POSTCODE":3807,"STATE_CODE":"VIC"},{"LATITUDE":-38.1681890235,"LOCALITY_NAME":"THOMSON","LONGITUDE":144.3783974741,"POSTCODE":3219,"STATE_CODE":"VIC"},{"LATITUDE":-36.2182609225,"LOCALITY_NAME":"TALLANGATTA","LONGITUDE":147.1809853122,"POSTCODE":3700,"STATE_CODE":"VIC"},{"LATITUDE":-37.769203535,"LOCALITY_NAME":"BULLEEN","LONGITUDE":145.0922481727,"POSTCODE":3105,"STATE_CODE":"VIC"},{"LATITUDE":-36.5985608325,"LOCALITY_NAME":"PIMPINIO","LONGITUDE":142.1112594192,"POSTCODE":3401,"STATE_CODE":"VIC"},{"LATITUDE":-37.1092682411,"LOCALITY_NAME":"DAISY HILL","LONGITUDE":143.7303696509,"POSTCODE":3465,"STATE_CODE":"VIC"},