[{"LATITUDE":-33.3268033423,"LOCALITY_NAME":"BUNBURY","LONGITUDE":115.6375484899,"POSTCODE":6230,"STATE_CODE":"WA"},{"LATITUDE":-33.3361127929,"LOCALITY_NAME":"EAST BUNBURY","LONGITUDE":115.6579960233,"POSTCODE":6230,"STATE_CODE":"WA"},{"LATITUDE":-31.9401188006,"LOCALITY_NAME":"SHACKLETON","LONGITUDE":117.8531135457,"POSTCODE":6386,"STATE_CODE":"WA"},{"LATITUDE":-33.3533812128,"LOCALITY_NAME":"COLLIE","LONGITUDE":116.1565122584,"POSTCODE":6225,"STATE_CODE":"WA"},{"LATITUDE":-31.8987666515,"LOCALITY_NAME":"GUILDFORD","LONGITUDE":115.9745765624,"POSTCODE":6055,"STATE_CODE":"WA"},{"LATITUDE":-34.8489807731,"LOCALITY_NAME":"CHEYNES","LONGITUDE":118.3586335875,"POSTCODE":6328,"STATE_CODE":"WA"},{"LATITUDE":-31.8555693524,"LOCALITY_NAME":"DAYTON","LONGITUDE":115.9729781219,"POSTCODE":6055,"STATE_CODE":"WA"},{"LATITUDE":-32.0079227567,"LOCALITY_NAME":"KARAWARA","LONGITUDE":115.8837858874,"POSTCODE":6152,"STATE_CODE":"WA"},{"LATITUDE":-32.0345622694,"LOCALITY_NAME":"RIVERTON","LONGITUDE":115.8961467729,"POSTCODE":6148,"STATE_CODE":"WA"},{"LATITUDE":-33.3163967372,"LOCALITY_NAME":"EATON","LONGITUDE":115.7150199039,"POSTCODE":6232,"STATE_CODE":"WA"},{"LATITUDE":-31.1342718984,"LOCALITY_NAME":"NORTH BODALLIN","LONGITUDE":118.9065151888,"POSTCODE":6424,"STATE_CODE":"WA"},{"LATITUDE":-31.887829896,"LOCALITY_NAME":"MORLEY","LONGITUDE":115.9084786992,"POSTCODE":6062,"STATE_CODE":"WA"},{"LATITUDE":-31.9029671958,"LOCALITY_NAME":"MUNDARING","LONGITUDE":116.1669491582,"POSTCODE":6073,"STATE_CODE":"WA"},{"LATITUDE":-31.9326499814,"LOCALITY_NAME":"MAYLANDS","LONGITUDE":115.8978829801,"POSTCODE":6051,"STATE_CODE":"WA"},{"LATITUDE":-34.6232681153,"LOCALITY_NAME":"MOUNT BARKER","LONGITUDE":117.6579526711,"POSTCODE":6324,"STATE_CODE":"WA"},{"LATITUDE":-31.9109008093,"LOCALITY_NAME":"GLEN FORREST","LONGITUDE":116.1023870155,"POSTCODE":6071,"STATE_CODE":"WA"},{"LATITUDE":-23.1409382555,"LOCALITY_NAME":"CORAL BAY","LONGITUDE":113.7734168289,"POSTCODE":6701,"STATE_CODE":"WA"},{"LATITUDE":-31.8549642555,"LOCALITY_NAME":"BALGA","LONGITUDE":115.8398150989,"POSTCODE":6061,"STATE_CODE":"WA"},{"LATITUDE":-31.9460805914,"LOCALITY_NAME":"NORTHBRIDGE","LONGITUDE":115.8560047821,"POSTCODE":6003,"STATE_CODE":"WA"},{"LATITUDE":-32.0787437899,"LOCALITY_NAME":"GOSNELLS","LONGITUDE":115.9927151339,"POSTCODE":6110,"STATE_CODE":"WA"},{"LATITUDE":-32.0314347496,"LOCALITY_NAME":"FERNDALE","LONGITUDE":115.9248262783,"POSTCODE":6148,"STATE_CODE":"WA"},{"LATITUDE":-33.5761918437,"LOCALITY_NAME":"DONNYBROOK","LONGITUDE":115.8222981005,"POSTCODE":6239,"STATE_CODE":"WA"},{"LATITUDE":-20.7357168613,"LOCALITY_NAME":"PEGS CREEK","LONGITUDE":116.8374211219,"POSTCODE":6714,"STATE_CODE":"WA"},{"LATITUDE":-33.8330511519,"LOCALITY_NAME":"CASTLETOWN","LONGITUDE":121.9092592317,"POSTCODE":6450,"STATE_CODE":"WA"},{"LATITUDE":-31.9341699214,"LOCALITY_NAME":"WEMBLEY","LONGITUDE":115.8138445497,"POSTCODE":6014,"STATE_CODE":"WA"},{"LATITUDE":-31.9004333699,"LOCALITY_NAME":"YOKINE","LONGITUDE":115.8511578594,"POSTCODE":6060,"STATE_CODE":"WA"},{"LATITUDE":-16.9269469636,"LOCALITY_NAME":"DAMPIER PENINSULA","LONGITUDE":122.6987984678,"POSTCODE":6725,"STATE_CODE":"WA"},{"LATITUDE":-31.8676334407,"LOCALITY_NAME":"WESTMINSTER","LONGITUDE":115.839090123,"POSTCODE":6061,"STATE_CODE":"WA"},{"LATITUDE":-32.8054080708,"LOCALITY_NAME":"LAKE CLIFTON","LONGITUDE":115.6947385125,"POSTCODE":6215,"STATE_CODE":"WA"},{"LATITUDE":-32.2204002016,"LOCALITY_NAME":"BYFORD","LONGITUDE":115.9951811245,"POSTCODE":6122,"STATE_CODE":"WA"},{"LATITUDE":-32.5988007521,"LOCALITY_NAME":"WANNANUP","LONGITUDE":115.6444200857,"POSTCODE":6210,"STATE_CODE":"WA"},{"LATITUDE":-34.9542903968,"LOCALITY_NAME":"HAY","LONGITUDE":117.3998127982,"POSTCODE":6333,"STATE_CODE":"WA"},{"LATITUDE":-32.3364224136,"LOCALITY_NAME":"BALDIVIS","LONGITUDE":115.8136192973,"POSTCODE":6171,"STATE_CODE":"WA"},{"LATITUDE":-31.7572778937,"LOCALITY_NAME":"WANNEROO","LONGITUDE":115.8084357971,"POSTCODE":6065,"STATE_CODE":"WA"},{"LATITUDE":-32.133183064,"LOCALITY_NAME":"PIARA WATERS","LONGITUDE":115.918476195,"POSTCODE":6112,"STATE_CODE":"WA"},{"LATITUDE":-32.5580322071,"LOCALITY_NAME":"ERSKINE","LONGITUDE":115.7003237054,"POSTCODE":6210,"STATE_CODE":"WA"},{"LATITUDE":-34.9963474721,"LOCALITY_NAME":"PARRYVILLE","LONGITUDE":117.1306874823,"POSTCODE":6333,"STATE_CODE":"WA"},{"LATITUDE":-31.9998524305,"LOCALITY_NAME":"ST JAMES","LONGITUDE":115.9109106121,"POSTCODE":6102,"STATE_CODE":"WA"},{"LATITUDE":-31.9176140391,"LOCALITY_NAME":"BAYSWATER","LONGITUDE":115.9154682639,"POSTCODE":6053,"STATE_CODE":"WA"},{"LATITUDE":-31.0347201969,"LOCALITY_NAME":"MOGUMBER","LONGITUDE":116.0501042071,"POSTCODE":6506,"STATE_CODE":"WA"},{"LATITUDE":-30.870889624,"LOCALITY_NAME":"MANMANNING","LONGITUDE":117.1474768094,"POSTCODE":6465,"STATE_CODE":"WA"},{"LATITUDE":-30.6837039146,"LOCALITY_NAME":"WALEBING","LONGITUDE":116.2157249874,"POSTCODE":6510,"STATE_CODE":"WA"},{"LATITUDE":-32.5507917791,"LOCALITY_NAME":"WEST PINGELLY","LONGITUDE":116.9672256461,"POSTCODE":6308,"STATE_CODE":"WA"},{"LATITUDE":-32.0186361504,"LOCALITY_NAME":"WILSON","LONGITUDE":115.9108067127,"POSTCODE":6107,"STATE_CODE":"WA"},{"LATITUDE":-33.0000523531,"LOCALITY_NAME":"COOKERNUP","LONGITUDE":115.8862246193,"POSTCODE":6220,"STATE_CODE":"WA"},{"LATITUDE":-29.8595986229,"LOCALITY_NAME":"MAYA","LONGITUDE":116.534796354,"POSTCODE":6614,"STATE_CODE":"WA"},{"LATITUDE":-32.1322509723,"LOCALITY_NAME":"WAMENUSKING","LONGITUDE":117.5728638808,"POSTCODE":6383,"STATE_CODE":"WA"},{"LATITUDE":-35.0023640429,"LOCALITY_NAME":"YAKAMIA","LONGITUDE":117.8792285044,"POSTCODE":6330,"STATE_CODE":"WA"},{"LATITUDE":-31.9317304845,"LOCALITY_NAME":"MOUNT LAWLEY","LONGITUDE":115.8750179675,"POSTCODE":6050,"STATE_CODE":"WA"},{"LATITUDE":-31.8300296653,"LOCALITY_NAME":"HERNE HILL","LONGITUDE":116.0279343152,"POSTCODE":6056,"STATE_CODE":"WA"},{"LATITUDE":-34.5926834463,"LOCALITY_NAME":"TAKALARUP","LONGITUDE":118.0908545791,"POSTCODE":6324,"STATE_CODE":"WA"},{"LATITUDE":-34.4884293575,"LOCALITY_NAME":"KENDENUP","LONGITUDE":117.6218482089,"POSTCODE":6323,"STATE_CODE":"WA"},{"LATITUDE":-30.275414517,"LOCALITY_NAME":"DALWALLINU","LONGITUDE":116.6597206583,"POSTCODE":6609,"STATE_CODE":"WA"},{"LATITUDE":-30.1939311789,"LOCALITY_NAME":"NUGADONG","LONGITUDE":116.6947930578,"POSTCODE":6609,"STATE_CODE":"WA"},{"LATITUDE":-31.7978100905,"LOCALITY_NAME":"BASKERVILLE","LONGITUDE":116.0501217341,"POSTCODE":6056,"STATE_CODE":"WA"},{"LATITUDE":-31.95700971,"LOCALITY_NAME":"EAST PERTH","LONGITUDE":115.8737307502,"POSTCODE":6004,"STATE_CODE":"WA"},{"LATITUDE":-32.4834365926,"LOCALITY_NAME":"KONDININ","LONGITUDE":118.2736411348,"POSTCODE":6367,"STATE_CODE":"WA"},{"LATITUDE":-32.1630114309,"LOCALITY_NAME":"BEDFORDALE","LONGITUDE":116.0569655424,"POSTCODE":6112,"STATE_CODE":"WA"},{"LATITUDE":-33.3986862582,"LOCALITY_NAME":"DALYELLUP","LONGITUDE":115.6224850741,"POSTCODE":6230,"STATE_CODE":"WA"},{"LATITUDE":-31.9027090502,"LOCALITY_NAME":"OSBORNE PARK","LONGITUDE":115.8210187549,"POSTCODE":6017,"STATE_CODE":"WA"},{"LATITUDE":-31.8959512188,"LOCALITY_NAME":"SCARBOROUGH","LONGITUDE":115.7651783981,"POSTCODE":6019,"STATE_CODE":"WA"},{"LATITUDE":-31.9148437231,"LOCALITY_NAME":"COOLBINIA","LONGITUDE":115.8535168645,"POSTCODE":6050,"STATE_CODE":"WA"},{"LATITUDE":-31.858212112,"LOCALITY_NAME":"MIRRABOOKA","LONGITUDE":115.8653264363,"POSTCODE":6061,"STATE_CODE":"WA"},{"LATITUDE":-31.8794715183,"LOCALITY_NAME":"NOLLAMARA","LONGITUDE":115.844370265,"POSTCODE":6061,"STATE_CODE":"WA"},{"LATITUDE":-31.9993642392,"LOCALITY_NAME":"PEPPERMINT GROVE","LONGITUDE":115.7652517187,"POSTCODE":6011,"STATE_CODE":"WA"},{"LATITUDE":-32.6309775587,"LOCALITY_NAME":"DAWESVILLE","LONGITUDE":115.6351305214,"POSTCODE":6211,"STATE_CODE":"WA"},{"LATITUDE":-29.9807327065,"LOCALITY_NAME":"BUNTINE","LONGITUDE":116.5650217298,"POSTCODE":6613,"STATE_CODE":"WA"},{"LATITUDE":-28.7461938617,"LOCALITY_NAME":"TIBRADDEN","LONGITUDE":114.922665455,"POSTCODE":6532,"STATE_CODE":"WA"},{"LATITUDE":-33.4968799576,"LOCALITY_NAME":"BOYERINE","LONGITUDE":117.3806438504,"POSTCODE":6316,"STATE_CODE":"WA"},{"LATITUDE":-29.4044349419,"LOCALITY_NAME":"ULARRING","LONGITUDE":119.8987081808,"POSTCODE":6436,"STATE_CODE":"WA"},{"LATITUDE":-30.5249993023,"LOCALITY_NAME":"BONNIE ROCK","LONGITUDE":118.3729702757,"POSTCODE":6479,"STATE_CODE":"WA"},{"LATITUDE":-30.0664179112,"LOCALITY_NAME":"GREEN HEAD","LONGITUDE":114.9715640958,"POSTCODE":6514,"STATE_CODE":"WA"},{"LATITUDE":-32.3638096629,"LOCALITY_NAME":"KUNJIN","LONGITUDE":117.7238431732,"POSTCODE":6375,"STATE_CODE":"WA"},{"LATITUDE":-32.1497501646,"LOCALITY_NAME":"ARMADALE","LONGITUDE":116.007054011,"POSTCODE":6112,"STATE_CODE":"WA"},{"LATITUDE":-32.0301598469,"LOCALITY_NAME":"BICTON","LONGITUDE":115.7854187565,"POSTCODE":6157,"STATE_CODE":"WA"},{"LATITUDE":-18.2250991141,"LOCALITY_NAME":"HALLS CREEK","LONGITUDE":127.6691532444,"POSTCODE":6770,"STATE_CODE":"WA"},{"LATITUDE":-33.8454702011,"LOCALITY_NAME":"MURADUP","LONGITUDE":116.9707583784,"POSTCODE":6394,"STATE_CODE":"WA"},{"LATITUDE":-32.0063540007,"LOCALITY_NAME":"BENTLEY","LONGITUDE":115.9101523723,"POSTCODE":6102,"STATE_CODE":"WA"},{"LATITUDE":-32.5865910204,"LOCALITY_NAME":"SOUTH YUNDERUP","LONGITUDE":115.792258597,"POSTCODE":6208,"STATE_CODE":"WA"},{"LATITUDE":-31.9485753187,"LOCALITY_NAME":"BELMONT","LONGITUDE":115.9327514797,"POSTCODE":6104,"STATE_CODE":"WA"},{"LATITUDE":-32.2652766761,"LOCALITY_NAME":"WELLARD","LONGITUDE":115.8348322562,"POSTCODE":6170,"STATE_CODE":"WA"},{"LATITUDE":-32.4731721343,"LOCALITY_NAME":"LAKELANDS","LONGITUDE":115.7673716085,"POSTCODE":6180,"STATE_CODE":"WA"},{"LATITUDE":-31.9044533632,"LOCALITY_NAME":"BASSENDEAN","LONGITUDE":115.9467224829,"POSTCODE":6054,"STATE_CODE":"WA"},{"LATITUDE":-31.89860914,"LOCALITY_NAME":"GREENMOUNT","LONGITUDE":116.0495907111,"POSTCODE":6056,"STATE_CODE":"WA"},{"LATITUDE":-33.6172205203,"LOCALITY_NAME":"DUNSBOROUGH","LONGITUDE":115.1048453296,"POSTCODE":6281,"STATE_CODE":"WA"},{"LATITUDE":-31.664580979,"LOCALITY_NAME":"MERRIWA","LONGITUDE":115.7127830561,"POSTCODE":6030,"STATE_CODE":"WA"},{"LATITUDE":-34.4455608792,"LOCALITY_NAME":"PEMBERTON","LONGITUDE":116.0408680388,"POSTCODE":6260,"STATE_CODE":"WA"},{"LATITUDE":-32.1285380836,"LOCALITY_NAME":"MUNSTER","LONGITUDE":115.7857089227,"POSTCODE":6166,"STATE_CODE":"WA"},{"LATITUDE":-27.4299080772,"LOCALITY_NAME":"CUE","LONGITUDE":117.8941453732,"POSTCODE":6640,"STATE_CODE":"WA"},{"LATITUDE":-32.0007687295,"LOCALITY_NAME":"LESMURDIE","LONGITUDE":116.0508266299,"POSTCODE":6076,"STATE_CODE":"WA"},{"LATITUDE":-32.1215292517,"LOCALITY_NAME":"HARRISDALE","LONGITUDE":115.9311270184,"POSTCODE":6112,"STATE_CODE":"WA"},{"LATITUDE":-32.0737658444,"LOCALITY_NAME":"MARTIN","LONGITUDE":116.0195710362,"POSTCODE":6110,"STATE_CODE":"WA"},{"LATITUDE":-34.8054478982,"LOCALITY_NAME":"NAPIER","LONGITUDE":117.9678037484,"POSTCODE":6330,"STATE_CODE":"WA"},{"LATITUDE":-28.352669983,"LOCALITY_NAME":"NORTHAMPTON","LONGITUDE":114.6327220661,"POSTCODE":6535,"STATE_CODE":"WA"},{"LATITUDE":-31.8500278527,"LOCALITY_NAME":"WEST SWAN","LONGITUDE":115.989718426,"POSTCODE":6055,"STATE_CODE":"WA"},{"LATITUDE":-33.1021362923,"LOCALITY_NAME":"LAKE GRACE","LONGITUDE":118.4649169689,"POSTCODE":6353,"STATE_CODE":"WA"},{"LATITUDE":-32.5953518116,"LOCALITY_NAME":"YEALERING","LONGITUDE":117.6257726627,"POSTCODE":6372,"STATE_CODE":"WA"},{"LATITUDE":-21.6436966663,"LOCALITY_NAME":"ONSLOW","LONGITUDE":115.1144623129,"POSTCODE":6710,"STATE_CODE":"WA"},{"LATITUDE":-33.1878948074,"LOCALITY_NAME":"KUKERIN","LONGITUDE":118.0849512275,"POSTCODE":6352,"STATE_CODE":"WA"},{"LATITUDE":-31.9094078516,"LOCALITY_NAME":"BEDFORD","LONGITUDE":115.8910350306,"POSTCODE":6052,"STATE_CODE":"WA"},{"LATITUDE":-31.7885748486,"LOCALITY_NAME":"GIDGEGANNUP","LONGITUDE":116.1861243168,"POSTCODE":6083,"STATE_CODE":"WA"},{"LATITUDE":-31.8127309702,"LOCALITY_NAME":"DARCH","LONGITUDE":115.8448563885,"POSTCODE":6065,"STATE_CODE":"WA"},{"LATITUDE":-32.08027784,"LOCALITY_NAME":"CANNING VALE","LONGITUDE":115.9235685807,"POSTCODE":6155,"STATE_CODE":"WA"},{"LATITUDE":-31.9747643061,"LOCALITY_NAME":"KEWDALE","LONGITUDE":115.9360350097,"POSTCODE":6105,"STATE_CODE":"WA"},{"LATITUDE":-32.8461888527,"LOCALITY_NAME":"CONTINE","LONGITUDE":117.0111659513,"POSTCODE":6311,"STATE_CODE":"WA"},{"LATITUDE":-30.0234953014,"LOCALITY_NAME":"MARCHAGEE","LONGITUDE":116.1444412273,"POSTCODE":6515,"STATE_CODE":"WA"},{"LATITUDE":-28.7561629254,"LOCALITY_NAME":"BERESFORD","LONGITUDE":114.6198138995,"POSTCODE":6530,"STATE_CODE":"WA"},{"LATITUDE":-29.2472636317,"LOCALITY_NAME":"DONGARA","LONGITUDE":114.9295809343,"POSTCODE":6525,"STATE_CODE":"WA"},{"LATITUDE":-31.9843012587,"LOCALITY_NAME":"FORRESTFIELD","LONGITUDE":116.0078351734,"POSTCODE":6058,"STATE_CODE":"WA"},{"LATITUDE":-31.5463902841,"LOCALITY_NAME":"YANCHEP","LONGITUDE":115.6394010362,"POSTCODE":6035,"STATE_CODE":"WA"},{"LATITUDE":-31.7396470785,"LOCALITY_NAME":"SINAGRA","LONGITUDE":115.8060525704,"POSTCODE":6065,"STATE_CODE":"WA"},{"LATITUDE":-31.8586845459,"LOCALITY_NAME":"BENNETT SPRINGS","LONGITUDE":115.9379545735,"POSTCODE":6063,"STATE_CODE":"WA"},{"LATITUDE":-31.7782682638,"LOCALITY_NAME":"MULLALOO","LONGITUDE":115.7432120319,"POSTCODE":6027,"STATE_CODE":"WA"},{"LATITUDE":-32.0396833238,"LOCALITY_NAME":"EAST FREMANTLE","LONGITUDE":115.7671609828,"POSTCODE":6158,"STATE_CODE":"WA"},{"LATITUDE":-32.1562799043,"LOCALITY_NAME":"HAYNES","LONGITUDE":115.9850550281,"POSTCODE":6112,"STATE_CODE":"WA"},{"LATITUDE":-31.894716082,"LOCALITY_NAME":"DOUBLEVIEW","LONGITUDE":115.7815376077,"POSTCODE":6018,"STATE_CODE":"WA"},{"LATITUDE":-32.0259351191,"LOCALITY_NAME":"MOUNT PLEASANT","LONGITUDE":115.8485126882,"POSTCODE":6153,"STATE_CODE":"WA"},{"LATITUDE":-33.4004946635,"LOCALITY_NAME":"DARDANUP","LONGITUDE":115.7590549544,"POSTCODE":6236,"STATE_CODE":"WA"},{"LATITUDE":-32.0807619862,"LOCALITY_NAME":"COOLBELLUP","LONGITUDE":115.807423324,"POSTCODE":6163,"STATE_CODE":"WA"},{"LATITUDE":-32.0659874281,"LOCALITY_NAME":"KARDINYA","LONGITUDE":115.8152973552,"POSTCODE":6163,"STATE_CODE":"WA"},{"LATITUDE":-32.0334682364,"LOCALITY_NAME":"ALFRED COVE","LONGITUDE":115.8163752201,"POSTCODE":6154,"STATE_CODE":"WA"},{"LATITUDE":-31.8882349598,"LOCALITY_NAME":"MIDVALE","LONGITUDE":116.0282451913,"POSTCODE":6056,"STATE_CODE":"WA"},{"LATITUDE":-31.8084127952,"LOCALITY_NAME":"LANDSDALE","LONGITUDE":115.8632080788,"POSTCODE":6065,"STATE_CODE":"WA"},{"LATITUDE":-32.1201610715,"LOCALITY_NAME":"TREEBY","LONGITUDE":115.8778610809,"POSTCODE":6164,"STATE_CODE":"WA"},{"LATITUDE":-31.8681748369,"LOCALITY_NAME":"MIDDLE SWAN","LONGITUDE":116.01991098,"POSTCODE":6056,"STATE_CODE":"WA"},{"LATITUDE":-31.6966043857,"LOCALITY_NAME":"BANKSIA GROVE","LONGITUDE":115.8052137559,"POSTCODE":6031,"STATE_CODE":"WA"},{"LATITUDE":-32.168166439,"LOCALITY_NAME":"HAMMOND PARK","LONGITUDE":115.8482826391,"POSTCODE":6164,"STATE_CODE":"WA"},{"LATITUDE":-33.239868082,"LOCALITY_NAME":"BEELA","LONGITUDE":115.8958645773,"POSTCODE":6224,"STATE_CODE":"WA"},{"LATITUDE":-33.86595323,"LOCALITY_NAME":"QUALEUP","LONGITUDE":116.8233168406,"POSTCODE":6394,"STATE_CODE":"WA"},{"LATITUDE":-30.0975507168,"LOCALITY_NAME":"WUBIN","LONGITUDE":116.6247746723,"POSTCODE":6612,"STATE_CODE":"WA"},{"LATITUDE":-32.0219717188,"LOCALITY_NAME":"BECKENHAM","LONGITUDE":115.960601069,"POSTCODE":6107,"STATE_CODE":"WA"},{"LATITUDE":-34.1268649787,"LOCALITY_NAME":"MOBRUP","LONGITUDE":116.9424507326,"POSTCODE":6395,"STATE_CODE":"WA"},{"LATITUDE":-33.9823113757,"LOCALITY_NAME":"ORCHID VALLEY","LONGITUDE":116.8396134012,"POSTCODE":6394,"STATE_CODE":"WA"},{"LATITUDE":-34.1012202452,"LOCALITY_NAME":"RYANSBROOK","LONGITUDE":117.1191601158,"POSTCODE":6395,"STATE_CODE":"WA"},{"LATITUDE":-28.3506393283,"LOCALITY_NAME":"SANDY GULLY","LONGITUDE":114.5250443967,"POSTCODE":6535,"STATE_CODE":"WA"},{"LATITUDE":-32.1958989675,"LOCALITY_NAME":"HOPE VALLEY","LONGITUDE":115.8026845275,"POSTCODE":6165,"STATE_CODE":"WA"},{"LATITUDE":-32.0127238634,"LOCALITY_NAME":"MOSMAN PARK","LONGITUDE":115.7622594655,"POSTCODE":6012,"STATE_CODE":"WA"},{"LATITUDE":-33.958591844,"LOCALITY_NAME":"MARGARET RIVER","LONGITUDE":115.0709663663,"POSTCODE":6285,"STATE_CODE":"WA"},{"LATITUDE":-33.8523643845,"LOCALITY_NAME":"COWARAMUP","LONGITUDE":115.0962384087,"POSTCODE":6284,"STATE_CODE":"WA"},{"LATITUDE":-32.1143722217,"LOCALITY_NAME":"CAMILLO","LONGITUDE":116.0004716678,"POSTCODE":6111,"STATE_CODE":"WA"},{"LATITUDE":-33.659270741,"LOCALITY_NAME":"WEST BUSSELTON","LONGITUDE":115.3247521617,"POSTCODE":6280,"STATE_CODE":"WA"},{"LATITUDE":-32.9352732223,"LOCALITY_NAME":"NARROGIN","LONGITUDE":117.1760403823,"POSTCODE":6312,"STATE_CODE":"WA"},{"LATITUDE":-32.1933328822,"LOCALITY_NAME":"WANDI","LONGITUDE":115.8636046621,"POSTCODE":6167,"STATE_CODE":"WA"},{"LATITUDE":-32.3351704581,"LOCALITY_NAME":"JARRAHDALE","LONGITUDE":116.0552507396,"POSTCODE":6124,"STATE_CODE":"WA"},{"LATITUDE":-28.8169565805,"LOCALITY_NAME":"WANDINA","LONGITUDE":114.6339737598,"POSTCODE":6530,"STATE_CODE":"WA"},{"LATITUDE":-33.6654633426,"LOCALITY_NAME":"YALLINGUP","LONGITUDE":115.0413438471,"POSTCODE":6282,"STATE_CODE":"WA"},{"LATITUDE":-30.3083995892,"LOCALITY_NAME":"JURIEN BAY","LONGITUDE":115.0448104954,"POSTCODE":6516,"STATE_CODE":"WA"},{"LATITUDE":-33.6792345274,"LOCALITY_NAME":"VASSE","LONGITUDE":115.2669557427,"POSTCODE":6280,"STATE_CODE":"WA"},{"LATITUDE":-33.3152629927,"LOCALITY_NAME":"PELICAN POINT","LONGITUDE":115.692377464,"POSTCODE":6230,"STATE_CODE":"WA"},{"LATITUDE":-32.0604169575,"LOCALITY_NAME":"WHITE GUM VALLEY","LONGITUDE":115.770759671,"POSTCODE":6162,"STATE_CODE":"WA"},{"LATITUDE":-34.9900406548,"LOCALITY_NAME":"MCKAIL","LONGITUDE":117.8419621138,"POSTCODE":6330,"STATE_CODE":"WA"},{"LATITUDE":-31.935131792,"LOCALITY_NAME":"ASCOT","LONGITUDE":115.9308956881,"POSTCODE":6104,"STATE_CODE":"WA"},{"LATITUDE":-34.9749552708,"LOCALITY_NAME":"WARRENUP","LONGITUDE":117.8527554378,"POSTCODE":6330,"STATE_CODE":"WA"},{"LATITUDE":-17.9511186061,"LOCALITY_NAME":"CABLE BEACH","LONGITUDE":122.2154657421,"POSTCODE":6726,"STATE_CODE":"WA"},{"LATITUDE":-33.9110768226,"LOCALITY_NAME":"OSMINGTON","LONGITUDE":115.2188032724,"POSTCODE":6285,"STATE_CODE":"WA"},{"LATITUDE":-31.8921637651,"LOCALITY_NAME":"INNALOO","LONGITUDE":115.7944706612,"POSTCODE":6018,"STATE_CODE":"WA"},{"LATITUDE":-34.9655196091,"LOCALITY_NAME":"DENMARK","LONGITUDE":117.3528024092,"POSTCODE":6333,"STATE_CODE":"WA"},{"LATITUDE":-32.0108317431,"LOCALITY_NAME":"EAST CANNINGTON","LONGITUDE":115.9556766344,"POSTCODE":6107,"STATE_CODE":"WA"},{"LATITUDE":-32.2951065896,"LOCALITY_NAME":"SHOALWATER","LONGITUDE":115.7101125461,"POSTCODE":6169,"STATE_CODE":"WA"},{"LATITUDE":-33.9582943696,"LOCALITY_NAME":"BRIDGETOWN","LONGITUDE":116.1333779379,"POSTCODE":6255,"STATE_CODE":"WA"},{"LATITUDE":-31.9273460066,"LOCALITY_NAME":"NORTH PERTH","LONGITUDE":115.8537649461,"POSTCODE":6006,"STATE_CODE":"WA"},{"LATITUDE":-33.3475759738,"LOCALITY_NAME":"SOUTH BUNBURY","LONGITUDE":115.6344430726,"POSTCODE":6230,"STATE_CODE":"WA"},{"LATITUDE":-32.9554051747,"LOCALITY_NAME":"YARLOOP","LONGITUDE":115.8987309647,"POSTCODE":6218,"STATE_CODE":"WA"},{"LATITUDE":-33.6241760098,"LOCALITY_NAME":"MOKUP","LONGITUDE":116.8428306347,"POSTCODE":6394,"STATE_CODE":"WA"},{"LATITUDE":-28.7787797376,"LOCALITY_NAME":"MOONYOONOOKA","LONGITUDE":114.724469922,"POSTCODE":6532,"STATE_CODE":"WA"},{"LATITUDE":-33.3091170491,"LOCALITY_NAME":"WAGIN","LONGITUDE":117.3422400061,"POSTCODE":6315,"STATE_CODE":"WA"},{"LATITUDE":-31.5667468936,"LOCALITY_NAME":"DUMBARTON","LONGITUDE":116.512214843,"POSTCODE":6566,"STATE_CODE":"WA"},{"LATITUDE":-32.0398349072,"LOCALITY_NAME":"MELVILLE","LONGITUDE":115.8010911085,"POSTCODE":6156,"STATE_CODE":"WA"},{"LATITUDE":-31.9760532352,"LOCALITY_NAME":"VICTORIA PARK","LONGITUDE":115.8931649279,"POSTCODE":6100,"STATE_CODE":"WA"},{"LATITUDE":-32.622148803,"LOCALITY_NAME":"PINJARRA","LONGITUDE":115.8706926277,"POSTCODE":6208,"STATE_CODE":"WA"},{"LATITUDE":-33.3406321458,"LOCALITY_NAME":"GLEN IRIS","LONGITUDE":115.6832872382,"POSTCODE":6230,"STATE_CODE":"WA"},{"LATITUDE":-32.3665346066,"LOCALITY_NAME":"BROOKTON","LONGITUDE":117.007733423,"POSTCODE":6306,"STATE_CODE":"WA"},{"LATITUDE":-31.4953269996,"LOCALITY_NAME":"TWO ROCKS","LONGITUDE":115.6039673642,"POSTCODE":6037,"STATE_CODE":"WA"},{"LATITUDE":-33.6386455077,"LOCALITY_NAME":"GEOGRAPHE","LONGITUDE":115.3786619157,"POSTCODE":6280,"STATE_CODE":"WA"},{"LATITUDE":-31.0197027777,"LOCALITY_NAME":"LANCELIN","LONGITUDE":115.3345225448,"POSTCODE":6044,"STATE_CODE":"WA"},{"LATITUDE":-35.0121087032,"LOCALITY_NAME":"CENTENNIAL PARK","LONGITUDE":117.8776343014,"POSTCODE":6330,"STATE_CODE":"WA"},{"LATITUDE":-32.2467206556,"LOCALITY_NAME":"PARMELIA","LONGITUDE":115.8260937667,"POSTCODE":6167,"STATE_CODE":"WA"},{"LATITUDE":-28.7393047446,"LOCALITY_NAME":"SPALDING","LONGITUDE":114.6318902342,"POSTCODE":6530,"STATE_CODE":"WA"},{"LATITUDE":-31.9790688843,"LOCALITY_NAME":"CARLISLE","LONGITUDE":115.9178106292,"POSTCODE":6101,"STATE_CODE":"WA"},{"LATITUDE":-21.1560073867,"LOCALITY_NAME":"MARBLE BAR","LONGITUDE":119.7320695662,"POSTCODE":6760,"STATE_CODE":"WA"},{"LATITUDE":-32.0516709548,"LOCALITY_NAME":"WILLETTON","LONGITUDE":115.8881309001,"POSTCODE":6155,"STATE_CODE":"WA"},{"LATITUDE":-31.6859488688,"LOCALITY_NAME":"CLARKSON","LONGITUDE":115.7256329971,"POSTCODE":6030,"STATE_CODE":"WA"},{"LATITUDE":-31.8412159107,"LOCALITY_NAME":"GIRRAWHEEN","LONGITUDE":115.8400133596,"POSTCODE":6064,"STATE_CODE":"WA"},{"LATITUDE":-35.0028223017,"LOCALITY_NAME":"OCEAN BEACH","LONGITUDE":117.3222387994,"POSTCODE":6333,"STATE_CODE":"WA"},{"LATITUDE":-31.9026885122,"LOCALITY_NAME":"EMBLETON","LONGITUDE":115.9105644694,"POSTCODE":6062,"STATE_CODE":"WA"},{"LATITUDE":-32.0434551955,"LOCALITY_NAME":"BRENTWOOD","LONGITUDE":115.8513877902,"POSTCODE":6153,"STATE_CODE":"WA"},{"LATITUDE":-31.8640945082,"LOCALITY_NAME":"BRUCE ROCK","LONGITUDE":118.1513202055,"POSTCODE":6418,"STATE_CODE":"WA"},{"LATITUDE":-31.9984885923,"LOCALITY_NAME":"COMO","LONGITUDE":115.8637628179,"POSTCODE":6152,"STATE_CODE":"WA"},{"LATITUDE":-31.790202556,"LOCALITY_NAME":"WOODVALE","LONGITUDE":115.793654209,"POSTCODE":6026,"STATE_CODE":"WA"},{"LATITUDE":-31.6544092346,"LOCALITY_NAME":"NORTHAM","LONGITUDE":116.6712086908,"POSTCODE":6401,"STATE_CODE":"WA"},{"LATITUDE":-31.9509813438,"LOCALITY_NAME":"PERTH","LONGITUDE":115.860662666,"POSTCODE":6000,"STATE_CODE":"WA"},{"LATITUDE":-31.9916825092,"LOCALITY_NAME":"WELSHPOOL","LONGITUDE":115.9409029999,"POSTCODE":6106,"STATE_CODE":"WA"},{"LATITUDE":-30.7903866632,"LOCALITY_NAME":"SOUTH BOULDER","LONGITUDE":121.491116535,"POSTCODE":6432,"STATE_CODE":"WA"},{"LATITUDE":-32.0159552554,"LOCALITY_NAME":"CANNINGTON","LONGITUDE":115.9367643659,"POSTCODE":6107,"STATE_CODE":"WA"},{"LATITUDE":-34.9979926566,"LOCALITY_NAME":"COLLINGWOOD HEIGHTS","LONGITUDE":117.9161957541,"POSTCODE":6330,"STATE_CODE":"WA"},{"LATITUDE":-34.5062232909,"LOCALITY_NAME":"WELLSTEAD","LONGITUDE":118.6365031415,"POSTCODE":6328,"STATE_CODE":"WA"},{"LATITUDE":-35.0666445645,"LOCALITY_NAME":"LITTLE GROVE","LONGITUDE":117.8678891822,"POSTCODE":6330,"STATE_CODE":"WA"},{"LATITUDE":-31.6240956942,"LOCALITY_NAME":"MECKERING","LONGITUDE":117.0027304361,"POSTCODE":6405,"STATE_CODE":"WA"},{"LATITUDE":-31.6642904151,"LOCALITY_NAME":"QUINNS ROCKS","LONGITUDE":115.6979681427,"POSTCODE":6030,"STATE_CODE":"WA"},{"LATITUDE":-28.6450842417,"LOCALITY_NAME":"LAVERTON","LONGITUDE":122.4277739088,"POSTCODE":6440,"STATE_CODE":"WA"},{"LATITUDE":-31.9884009067,"LOCALITY_NAME":"EAST VICTORIA PARK","LONGITUDE":115.9049852671,"POSTCODE":6101,"STATE_CODE":"WA"},{"LATITUDE":-31.1748792904,"LOCALITY_NAME":"NUNGARIN","LONGITUDE":118.1043530026,"POSTCODE":6490,"STATE_CODE":"WA"},{"LATITUDE":-28.7649215101,"LOCALITY_NAME":"WONTHELLA","LONGITUDE":114.6287847863,"POSTCODE":6530,"STATE_CODE":"WA"},{"LATITUDE":-31.5893252962,"LOCALITY_NAME":"IRISHTOWN","LONGITUDE":116.653360705,"POSTCODE":6401,"STATE_CODE":"WA"},{"LATITUDE":-31.7353977216,"LOCALITY_NAME":"ILUKA","LONGITUDE":115.729589684,"POSTCODE":6028,"STATE_CODE":"WA"},{"LATITUDE":-17.9629037049,"LOCALITY_NAME":"BROOME","LONGITUDE":122.2319894219,"POSTCODE":6725,"STATE_CODE":"WA"},{"LATITUDE":-31.5910645371,"LOCALITY_NAME":"EGLINTON","LONGITUDE":115.6672481529,"POSTCODE":6034,"STATE_CODE":"WA"},{"LATITUDE":-31.9464093196,"LOCALITY_NAME":"WEST PERTH","LONGITUDE":115.8451529623,"POSTCODE":6005,"STATE_CODE":"WA"},{"LATITUDE":-31.8224634149,"LOCALITY_NAME":"BRABHAM","LONGITUDE":115.9695861986,"POSTCODE":6055,"STATE_CODE":"WA"},{"LATITUDE":-31.6168931396,"LOCALITY_NAME":"ALKIMOS","LONGITUDE":115.6862126279,"POSTCODE":6038,"STATE_CODE":"WA"},{"LATITUDE":-32.1202894234,"LOCALITY_NAME":"KELMSCOTT","LONGITUDE":116.0163149472,"POSTCODE":6111,"STATE_CODE":"WA"},{"LATITUDE":-32.282298339,"LOCALITY_NAME":"ROCKINGHAM","LONGITUDE":115.7369902683,"POSTCODE":6168,"STATE_CODE":"WA"},{"LATITUDE":-34.9741005736,"LOCALITY_NAME":"BAYONET HEAD","LONGITUDE":117.9340698292,"POSTCODE":6330,"STATE_CODE":"WA"},{"LATITUDE":-32.0606300894,"LOCALITY_NAME":"THORNLIE","LONGITUDE":115.9548181456,"POSTCODE":6108,"STATE_CODE":"WA"},{"LATITUDE":-31.9478479743,"LOCALITY_NAME":"SUBIACO","LONGITUDE":115.8246113023,"POSTCODE":6008,"STATE_CODE":"WA"},{"LATITUDE":-34.4125148464,"LOCALITY_NAME":"CHANNYBEARUP","LONGITUDE":115.9650496781,"POSTCODE":6260,"STATE_CODE":"WA"},{"LATITUDE":-32.0504727913,"LOCALITY_NAME":"MADDINGTON","LONGITUDE":115.9948768385,"POSTCODE":6109,"STATE_CODE":"WA"},{"LATITUDE":-32.424242533,"LOCALITY_NAME":"GOLDEN BAY","LONGITUDE":115.7597435894,"POSTCODE":6174,"STATE_CODE":"WA"},{"LATITUDE":-32.1356413005,"LOCALITY_NAME":"SEVILLE GROVE","LONGITUDE":115.9893012934,"POSTCODE":6112,"STATE_CODE":"WA"},{"LATITUDE":-33.2780389633,"LOCALITY_NAME":"AUSTRALIND","LONGITUDE":115.7291817552,"POSTCODE":6233,"STATE_CODE":"WA"},{"LATITUDE":-31.7821993725,"LOCALITY_NAME":"AVELEY","LONGITUDE":115.9885850734,"POSTCODE":6069,"STATE_CODE":"WA"},{"LATITUDE":-32.0536168768,"LOCALITY_NAME":"FREMANTLE","LONGITUDE":115.755208979,"POSTCODE":6160,"STATE_CODE":"WA"},{"LATITUDE":-31.7373206287,"LOCALITY_NAME":"JOONDALUP","LONGITUDE":115.7670444566,"POSTCODE":6027,"STATE_CODE":"WA"},{"LATITUDE":-32.1421784204,"LOCALITY_NAME":"SUCCESS","LONGITUDE":115.8509047917,"POSTCODE":6164,"STATE_CODE":"WA"},{"LATITUDE":-25.9242602518,"LOCALITY_NAME":"DENHAM","LONGITUDE":113.5365310602,"POSTCODE":6537,"STATE_CODE":"WA"},{"LATITUDE":-32.0423568884,"LOCALITY_NAME":"PALMYRA","LONGITUDE":115.78571404,"POSTCODE":6157,"STATE_CODE":"WA"},{"LATITUDE":-32.167632901,"LOCALITY_NAME":"BROOKDALE","LONGITUDE":116.0022305275,"POSTCODE":6112,"STATE_CODE":"WA"},{"LATITUDE":-32.137792167,"LOCALITY_NAME":"MOUNT NASURA","LONGITUDE":116.0242834942,"POSTCODE":6112,"STATE_CODE":"WA"},{"LATITUDE":-32.0834422927,"LOCALITY_NAME":"HAMILTON HILL","LONGITUDE":115.7796754841,"POSTCODE":6163,"STATE_CODE":"WA"},{"LATITUDE":-31.757912263,"LOCALITY_NAME":"OCEAN REEF","LONGITUDE":115.7374977668,"POSTCODE":6027,"STATE_CODE":"WA"},{"LATITUDE":-28.7371050349,"LOCALITY_NAME":"BLUFF POINT","LONGITUDE":114.622892576,"POSTCODE":6530,"STATE_CODE":"WA"},{"LATITUDE":-33.7456415347,"LOCALITY_NAME":"MULLALYUP","LONGITUDE":115.947044815,"POSTCODE":6252,"STATE_CODE":"WA"},{"LATITUDE":-31.790000944,"LOCALITY_NAME":"KALLAROO","LONGITUDE":115.7458915937,"POSTCODE":6025,"STATE_CODE":"WA"},{"LATITUDE":-32.1044044774,"LOCALITY_NAME":"SPEARWOOD","LONGITUDE":115.7843959451,"POSTCODE":6163,"STATE_CODE":"WA"},{"LATITUDE":-32.0412130872,"LOCALITY_NAME":"MYAREE","LONGITUDE":115.8146094821,"POSTCODE":6154,"STATE_CODE":"WA"},{"LATITUDE":-32.0393813493,"LOCALITY_NAME":"LYNWOOD","LONGITUDE":115.9292339017,"POSTCODE":6147,"STATE_CODE":"WA"},{"LATITUDE":-32.0550004327,"LOCALITY_NAME":"BATEMAN","LONGITUDE":115.8473689179,"POSTCODE":6150,"STATE_CODE":"WA"},{"LATITUDE":-31.9623051354,"LOCALITY_NAME":"BURSWOOD","LONGITUDE":115.8975084538,"POSTCODE":6100,"STATE_CODE":"WA"},{"LATITUDE":-32.026070028,"LOCALITY_NAME":"ARDROSS","LONGITUDE":115.8374305166,"POSTCODE":6153,"STATE_CODE":"WA"},{"LATITUDE":-32.0931542007,"LOCALITY_NAME":"NORTH COOGEE","LONGITUDE":115.759893728,"POSTCODE":6163,"STATE_CODE":"WA"},{"LATITUDE":-32.1327763651,"LOCALITY_NAME":"BEELIAR","LONGITUDE":115.8088592249,"POSTCODE":6164,"STATE_CODE":"WA"},{"LATITUDE":-31.6716872449,"LOCALITY_NAME":"MULUCKINE","LONGITUDE":116.7256033751,"POSTCODE":6401,"STATE_CODE":"WA"},{"LATITUDE":-31.8910138162,"LOCALITY_NAME":"EDEN HILL","LONGITUDE":115.9438540985,"POSTCODE":6054,"STATE_CODE":"WA"},{"LATITUDE":-31.1848364372,"LOCALITY_NAME":"TALGOMINE","LONGITUDE":118.2634085406,"POSTCODE":6490,"STATE_CODE":"WA"},{"LATITUDE":-33.8327328763,"LOCALITY_NAME":"KOJONUP","LONGITUDE":117.1589953777,"POSTCODE":6395,"STATE_CODE":"WA"},{"LATITUDE":-32.191955367,"LOCALITY_NAME":"DARLING DOWNS","LONGITUDE":115.9915628286,"POSTCODE":6122,"STATE_CODE":"WA"},{"LATITUDE":-31.9819733232,"LOCALITY_NAME":"CLAREMONT","LONGITUDE":115.780900362,"POSTCODE":6010,"STATE_CODE":"WA"},{"LATITUDE":-31.9621302294,"LOCALITY_NAME":"CLOVERDALE","LONGITUDE":115.9434264773,"POSTCODE":6105,"STATE_CODE":"WA"},{"LATITUDE":-31.9174451925,"LOCALITY_NAME":"HELENA VALLEY","LONGITUDE":116.0342450769,"POSTCODE":6056,"STATE_CODE":"WA"},{"LATITUDE":-32.0686194027,"LOCALITY_NAME":"BEACONSFIELD","LONGITUDE":115.7675495263,"POSTCODE":6162,"STATE_CODE":"WA"},{"LATITUDE":-31.9099947089,"LOCALITY_NAME":"JOONDANNA","LONGITUDE":115.8368530743,"POSTCODE":6060,"STATE_CODE":"WA"},{"LATITUDE":-34.168841021,"LOCALITY_NAME":"PALGARUP","LONGITUDE":116.1809429261,"POSTCODE":6258,"STATE_CODE":"WA"},{"LATITUDE":-31.8060647125,"LOCALITY_NAME":"PADBURY","LONGITUDE":115.7664080394,"POSTCODE":6025,"STATE_CODE":"WA"},{"LATITUDE":-31.7653657511,"LOCALITY_NAME":"EDGEWATER","LONGITUDE":115.7836890522,"POSTCODE":6027,"STATE_CODE":"WA"},{"LATITUDE":-31.9120206036,"LOCALITY_NAME":"MOUNT HARDEY","LONGITUDE":116.8354201848,"POSTCODE":6302,"STATE_CODE":"WA"},{"LATITUDE":-31.8865155848,"LOCALITY_NAME":"HOVEA","LONGITUDE":116.1150402607,"POSTCODE":6071,"STATE_CODE":"WA"},{"LATITUDE":-30.5586872092,"LOCALITY_NAME":"BERKSHIRE VALLEY","LONGITUDE":116.1540947204,"POSTCODE":6510,"STATE_CODE":"WA"},{"LATITUDE":-30.3774610803,"LOCALITY_NAME":"NAMBAN","LONGITUDE":116.0477684161,"POSTCODE":6512,"STATE_CODE":"WA"},{"LATITUDE":-33.2525990225,"LOCALITY_NAME":"BRUNSWICK","LONGITUDE":115.8326689554,"POSTCODE":6224,"STATE_CODE":"WA"},{"LATITUDE":-31.8742257919,"LOCALITY_NAME":"PARKERVILLE","LONGITUDE":116.1383388933,"POSTCODE":6081,"STATE_CODE":"WA"},{"LATITUDE":-34.0803442847,"LOCALITY_NAME":"FOREST GROVE","LONGITUDE":115.1071343982,"POSTCODE":6286,"STATE_CODE":"WA"},{"LATITUDE":-32.0711531366,"LOCALITY_NAME":"SOUTH FREMANTLE","LONGITUDE":115.7547676615,"POSTCODE":6162,"STATE_CODE":"WA"},{"LATITUDE":-30.9800345597,"LOCALITY_NAME":"BULLFINCH","LONGITUDE":119.1123136022,"POSTCODE":6484,"STATE_CODE":"WA"},{"LATITUDE":-33.6115498152,"LOCALITY_NAME":"BROOKHAMPTON","LONGITUDE":115.8773777609,"POSTCODE":6239,"STATE_CODE":"WA"},{"LATITUDE":-33.3394597409,"LOCALITY_NAME":"DARKAN","LONGITUDE":116.7427381319,"POSTCODE":6392,"STATE_CODE":"WA"},{"LATITUDE":-33.6891731341,"LOCALITY_NAME":"KATANNING","LONGITUDE":117.5572762268,"POSTCODE":6317,"STATE_CODE":"WA"},{"LATITUDE":-32.171998424,"LOCALITY_NAME":"HILBERT","LONGITUDE":115.9819518461,"POSTCODE":6112,"STATE_CODE":"WA"},{"LATITUDE":-31.7477159181,"LOCALITY_NAME":"BAKERS HILL","LONGITUDE":116.4520192482,"POSTCODE":6562,"STATE_CODE":"WA"},{"LATITUDE":-33.8559672811,"LOCALITY_NAME":"PINK LAKE","LONGITUDE":121.8177685225,"POSTCODE":6450,"STATE_CODE":"WA"},{"LATITUDE":-31.8077532958,"LOCALITY_NAME":"MILLENDON","LONGITUDE":116.0357685679,"POSTCODE":6056,"STATE_CODE":"WA"},{"LATITUDE":-31.6523045036,"LOCALITY_NAME":"CUNDERDIN","LONGITUDE":117.2389082563,"POSTCODE":6407,"STATE_CODE":"WA"},{"LATITUDE":-33.0797055109,"LOCALITY_NAME":"HARVEY","LONGITUDE":115.8942425097,"POSTCODE":6220,"STATE_CODE":"WA"},{"LATITUDE":-20.311595831,"LOCALITY_NAME":"PORT HEDLAND","LONGITUDE":118.6128606516,"POSTCODE":6721,"STATE_CODE":"WA"},{"LATITUDE":-31.8695205037,"LOCALITY_NAME":"CAVERSHAM","LONGITUDE":115.9677506473,"POSTCODE":6055,"STATE_CODE":"WA"},{"LATITUDE":-34.6334118459,"LOCALITY_NAME":"NORTHCLIFFE","LONGITUDE":116.1218177827,"POSTCODE":6262,"STATE_CODE":"WA"},{"LATITUDE":-31.4837204646,"LOCALITY_NAME":"MERREDIN","LONGITUDE":118.2791415048,"POSTCODE":6415,"STATE_CODE":"WA"},{"LATITUDE":-31.4869512122,"LOCALITY_NAME":"CHITTERING","LONGITUDE":116.0612762514,"POSTCODE":6084,"STATE_CODE":"WA"},{"LATITUDE":-33.3152149281,"LOCALITY_NAME":"BUREKUP","LONGITUDE":115.8181809189,"POSTCODE":6227,"STATE_CODE":"WA"},{"LATITUDE":-34.2805061866,"LOCALITY_NAME":"CRANBROOK","LONGITUDE":117.5189350088,"POSTCODE":6321,"STATE_CODE":"WA"},{"LATITUDE":-32.5273735218,"LOCALITY_NAME":"MANDURAH","LONGITUDE":115.7294239132,"POSTCODE":6210,"STATE_CODE":"WA"},{"LATITUDE":-28.7762713298,"LOCALITY_NAME":"GERALDTON","LONGITUDE":114.6145978901,"POSTCODE":6530,"STATE_CODE":"WA"},{"LATITUDE":-23.3572683676,"LOCALITY_NAME":"NEWMAN","LONGITUDE":119.7363634459,"POSTCODE":6753,"STATE_CODE":"WA"},{"LATITUDE":-20.4077174854,"LOCALITY_NAME":"SOUTH HEDLAND","LONGITUDE":118.607943319,"POSTCODE":6722,"STATE_CODE":"WA"},{"LATITUDE":-32.9391306202,"LOCALITY_NAME":"SALMON GUMS","LONGITUDE":121.6664432006,"POSTCODE":6445,"STATE_CODE":"WA"},{"LATITUDE":-32.144082515,"LOCALITY_NAME":"ATWELL","LONGITUDE":115.8649755486,"POSTCODE":6164,"STATE_CODE":"WA"},{"LATITUDE":-31.9793428881,"LOCALITY_NAME":"KWOLYIN","LONGITUDE":117.7410556576,"POSTCODE":6385,"STATE_CODE":"WA"},{"LATITUDE":-29.4614302698,"LOCALITY_NAME":"ARRINO","LONGITUDE":115.6019383473,"POSTCODE":6519,"STATE_CODE":"WA"},{"LATITUDE":-33.9957756024,"LOCALITY_NAME":"LUMEAH","LONGITUDE":117.2553748656,"POSTCODE":6395,"STATE_CODE":"WA"},{"LATITUDE":-28.7796204045,"LOCALITY_NAME":"WEST END","LONGITUDE":114.587157573,"POSTCODE":6530,"STATE_CODE":"WA"},{"LATITUDE":-32.5825696475,"LOCALITY_NAME":"RAVENSWOOD","LONGITUDE":115.8357006631,"POSTCODE":6208,"STATE_CODE":"WA"},{"LATITUDE":-31.8866970982,"LOCALITY_NAME":"MIDLAND","LONGITUDE":116.0107551042,"POSTCODE":6056,"STATE_CODE":"WA"},{"LATITUDE":-32.2170658789,"LOCALITY_NAME":"ANKETELL","LONGITUDE":115.8656920701,"POSTCODE":6167,"STATE_CODE":"WA"},{"LATITUDE":-35.0202701015,"LOCALITY_NAME":"MOUNT CLARENCE","LONGITUDE":117.8973716605,"POSTCODE":6330,"STATE_CODE":"WA"},{"LATITUDE":-33.3060341554,"LOCALITY_NAME":"MILLBRIDGE","LONGITUDE":115.7347819779,"POSTCODE":6232,"STATE_CODE":"WA"},{"LATITUDE":-31.97740713,"LOCALITY_NAME":"SWANBOURNE","LONGITUDE":115.7672514295,"POSTCODE":6010,"STATE_CODE":"WA"},{"LATITUDE":-31.6876596287,"LOCALITY_NAME":"MINDARIE","LONGITUDE":115.7078214633,"POSTCODE":6030,"STATE_CODE":"WA"},{"LATITUDE":-28.7909523068,"LOCALITY_NAME":"KARLOO","LONGITUDE":114.6407089862,"POSTCODE":6530,"STATE_CODE":"WA"},{"LATITUDE":-30.953740854,"LOCALITY_NAME":"COOLGARDIE","LONGITUDE":121.1634115675,"POSTCODE":6429,"STATE_CODE":"WA"},{"LATITUDE":-31.8275781253,"LOCALITY_NAME":"MARANGAROO","LONGITUDE":115.8392795707,"POSTCODE":6064,"STATE_CODE":"WA"},{"LATITUDE":-33.6610040533,"LOCALITY_NAME":"ABBEY","LONGITUDE":115.2593255935,"POSTCODE":6280,"STATE_CODE":"WA"},{"LATITUDE":-31.8690480024,"LOCALITY_NAME":"NARRALOGGAN","LONGITUDE":117.0725571626,"POSTCODE":6302,"STATE_CODE":"WA"},{"LATITUDE":-33.5571848494,"LOCALITY_NAME":"CAPEL","LONGITUDE":115.5618537149,"POSTCODE":6271,"STATE_CODE":"WA"},{"LATITUDE":-31.792556935,"LOCALITY_NAME":"YOUNDEGIN","LONGITUDE":117.2578565454,"POSTCODE":6407,"STATE_CODE":"WA"},{"LATITUDE":-31.9177614044,"LOCALITY_NAME":"MENORA","LONGITUDE":115.863111396,"POSTCODE":6050,"STATE_CODE":"WA"},{"LATITUDE":-32.805285962,"LOCALITY_NAME":"BODDINGTON","LONGITUDE":116.4753007868,"POSTCODE":6390,"STATE_CODE":"WA"},{"LATITUDE":-32.0808386206,"LOCALITY_NAME":"HUNTINGDALE","LONGITUDE":115.9658090102,"POSTCODE":6110,"STATE_CODE":"WA"},{"LATITUDE":-32.0999613555,"LOCALITY_NAME":"KARRAGULLEN","LONGITUDE":116.1136370474,"POSTCODE":6111,"STATE_CODE":"WA"},{"LATITUDE":-34.9750846599,"LOCALITY_NAME":"WALPOLE","LONGITUDE":116.7335985809,"POSTCODE":6398,"STATE_CODE":"WA"},{"LATITUDE":-31.8104187579,"LOCALITY_NAME":"KINGSLEY","LONGITUDE":115.7984298271,"POSTCODE":6026,"STATE_CODE":"WA"},{"LATITUDE":-32.0680500515,"LOCALITY_NAME":"HILTON","LONGITUDE":115.7854258788,"POSTCODE":6163,"STATE_CODE":"WA"},{"LATITUDE":-31.9150707543,"LOCALITY_NAME":"WEMBLEY DOWNS","LONGITUDE":115.7739808372,"POSTCODE":6019,"STATE_CODE":"WA"},{"LATITUDE":-32.0565506165,"LOCALITY_NAME":"BULL CREEK","LONGITUDE":115.861346941,"POSTCODE":6149,"STATE_CODE":"WA"},{"LATITUDE":-33.9649808124,"LOCALITY_NAME":"ONGERUP","LONGITUDE":118.486792479,"POSTCODE":6336,"STATE_CODE":"WA"},{"LATITUDE":-29.1597460033,"LOCALITY_NAME":"MOUNT HORNER","LONGITUDE":115.1433750161,"POSTCODE":6525,"STATE_CODE":"WA"},{"LATITUDE":-31.8400861671,"LOCALITY_NAME":"BALLAJURA","LONGITUDE":115.8960774164,"POSTCODE":6066,"STATE_CODE":"WA"},{"LATITUDE":-32.0290817037,"LOCALITY_NAME":"SHELLEY","LONGITUDE":115.8884214684,"POSTCODE":6148,"STATE_CODE":"WA"},{"LATITUDE":-32.0135406927,"LOCALITY_NAME":"MANNING","LONGITUDE":115.8698374699,"POSTCODE":6152,"STATE_CODE":"WA"},{"LATITUDE":-32.4754798287,"LOCALITY_NAME":"MADORA BAY","LONGITUDE":115.7517903812,"POSTCODE":6210,"STATE_CODE":"WA"},{"LATITUDE":-32.0016945297,"LOCALITY_NAME":"WATTLE GROVE","LONGITUDE":115.9905273781,"POSTCODE":6107,"STATE_CODE":"WA"},{"LATITUDE":-31.9940854942,"LOCALITY_NAME":"COTTESLOE","LONGITUDE":115.758196299,"POSTCODE":6011,"STATE_CODE":"WA"},{"LATITUDE":-32.0276000658,"LOCALITY_NAME":"ATTADALE","LONGITUDE":115.8017802994,"POSTCODE":6156,"STATE_CODE":"WA"},{"LATITUDE":-31.8914709716,"LOCALITY_NAME":"DIANELLA","LONGITUDE":115.874138782,"POSTCODE":6059,"STATE_CODE":"WA"},{"LATITUDE":-31.9757849772,"LOCALITY_NAME":"KALAMUNDA","LONGITUDE":116.0548625784,"POSTCODE":6076,"STATE_CODE":"WA"},{"LATITUDE":-31.8608761985,"LOCALITY_NAME":"NORTH BEACH","LONGITUDE":115.7578339384,"POSTCODE":6020,"STATE_CODE":"WA"},{"LATITUDE":-31.9237072743,"LOCALITY_NAME":"BUSHMEAD","LONGITUDE":116.0257015198,"POSTCODE":6055,"STATE_CODE":"WA"},{"LATITUDE":-31.7817750495,"LOCALITY_NAME":"PEARSALL","LONGITUDE":115.818487263,"POSTCODE":6065,"STATE_CODE":"WA"},{"LATITUDE":-33.9770063005,"LOCALITY_NAME":"JINGALUP","LONGITUDE":117.049425235,"POSTCODE":6395,"STATE_CODE":"WA"},{"LATITUDE":-32.3695179635,"LOCALITY_NAME":"SERPENTINE","LONGITUDE":115.9803359348,"POSTCODE":6125,"STATE_CODE":"WA"},{"LATITUDE":-32.0992293468,"LOCALITY_NAME":"SOUTHERN RIVER","LONGITUDE":115.9517583614,"POSTCODE":6110,"STATE_CODE":"WA"},{"LATITUDE":-31.7345556037,"LOCALITY_NAME":"ASHBY","LONGITUDE":115.7981051302,"POSTCODE":6065,"STATE_CODE":"WA"},{"LATITUDE":-31.6621461692,"LOCALITY_NAME":"BULLSBROOK","LONGITUDE":116.0399397002,"POSTCODE":6084,"STATE_CODE":"WA"},{"LATITUDE":-33.459292282,"LOCALITY_NAME":"STRATHAM","LONGITUDE":115.5948472272,"POSTCODE":6237,"STATE_CODE":"WA"},{"LATITUDE":-32.8411028674,"LOCALITY_NAME":"WAROONA","LONGITUDE":115.9212737584,"POSTCODE":6215,"STATE_CODE":"WA"},{"LATITUDE":-34.1254391867,"LOCALITY_NAME":"WARNER GLEN","LONGITUDE":115.2126366826,"POSTCODE":6288,"STATE_CODE":"WA"},{"LATITUDE":-33.2449216008,"LOCALITY_NAME":"LESCHENAULT","LONGITUDE":115.7269558065,"POSTCODE":6233,"STATE_CODE":"WA"},{"LATITUDE":-34.2492084305,"LOCALITY_NAME":"KUDARDUP","LONGITUDE":115.1408363272,"POSTCODE":6290,"STATE_CODE":"WA"},{"LATITUDE":-31.7248650956,"LOCALITY_NAME":"BURNS BEACH","LONGITUDE":115.724539007,"POSTCODE":6028,"STATE_CODE":"WA"},{"LATITUDE":-32.2344021591,"LOCALITY_NAME":"MEDINA","LONGITUDE":115.8054034695,"POSTCODE":6167,"STATE_CODE":"WA"},{"LATITUDE":-31.9391956104,"LOCALITY_NAME":"FLOREAT","LONGITUDE":115.7940741647,"POSTCODE":6014,"STATE_CODE":"WA"},{"LATITUDE":-28.7805408747,"LOCALITY_NAME":"DEEPDALE","LONGITUDE":114.67852872,"POSTCODE":6532,"STATE_CODE":"WA"},{"LATITUDE":-32.1612028797,"LOCALITY_NAME":"MOUNT RICHON","LONGITUDE":116.0204374909,"POSTCODE":6112,"STATE_CODE":"WA"},{"LATITUDE":-31.7705634933,"LOCALITY_NAME":"ELLENBROOK","LONGITUDE":115.9764126751,"POSTCODE":6069,"STATE_CODE":"WA"},{"LATITUDE":-32.0412536704,"LOCALITY_NAME":"LANGFORD","LONGITUDE":115.9409504308,"POSTCODE":6147,"STATE_CODE":"WA"},{"LATITUDE":-31.8821101811,"LOCALITY_NAME":"LOCKRIDGE","LONGITUDE":115.9503789511,"POSTCODE":6054,"STATE_CODE":"WA"},{"LATITUDE":-17.3151532046,"LOCALITY_NAME":"DERBY","LONGITUDE":123.6427181311,"POSTCODE":6728,"STATE_CODE":"WA"},{"LATITUDE":-31.941068028,"LOCALITY_NAME":"HIGH WYCOMBE","LONGITUDE":116.004029648,"POSTCODE":6057,"STATE_CODE":"WA"},{"LATITUDE":-31.8492142637,"LOCALITY_NAME":"WATERMANS BAY","LONGITUDE":115.7550672773,"POSTCODE":6020,"STATE_CODE":"WA"},{"LATITUDE":-31.9253518877,"LOCALITY_NAME":"CHURCHLANDS","LONGITUDE":115.7966923847,"POSTCODE":6018,"STATE_CODE":"WA"},{"LATITUDE":-33.3527800135,"LOCALITY_NAME":"CAREY PARK","LONGITUDE":115.6525970183,"POSTCODE":6230,"STATE_CODE":"WA"},{"LATITUDE":-31.5702643328,"LOCALITY_NAME":"MUCHEA","LONGITUDE":115.9671728907,"POSTCODE":6501,"STATE_CODE":"WA"},{"LATITUDE":-20.7520488434,"LOCALITY_NAME":"BAYNTON","LONGITUDE":116.8035009658,"POSTCODE":6714,"STATE_CODE":"WA"},{"LATITUDE":-32.0522888106,"LOCALITY_NAME":"WILLAGEE","LONGITUDE":115.8044384368,"POSTCODE":6156,"STATE_CODE":"WA"},{"LATITUDE":-31.9591965637,"LOCALITY_NAME":"RIVERVALE","LONGITUDE":115.9135310354,"POSTCODE":6103,"STATE_CODE":"WA"},{"LATITUDE":-33.8691591904,"LOCALITY_NAME":"BROOMEHILL EAST","LONGITUDE":117.7556110466,"POSTCODE":6318,"STATE_CODE":"WA"},{"LATITUDE":-32.3605340393,"LOCALITY_NAME":"PORT KENNEDY","LONGITUDE":115.756393071,"POSTCODE":6172,"STATE_CODE":"WA"},{"LATITUDE":-33.3678405872,"LOCALITY_NAME":"WITHERS","LONGITUDE":115.6306542439,"POSTCODE":6230,"STATE_CODE":"WA"},{"LATITUDE":-32.0357053035,"LOCALITY_NAME":"KENWICK","LONGITUDE":115.9798421571,"POSTCODE":6107,"STATE_CODE":"WA"},{"LATITUDE":-24.89198951,"LOCALITY_NAME":"SOUTH CARNARVON","LONGITUDE":113.6600950555,"POSTCODE":6701,"STATE_CODE":"WA"},{"LATITUDE":-33.0795996692,"LOCALITY_NAME":"LAKE KING","LONGITUDE":119.6941419636,"POSTCODE":6356,"STATE_CODE":"WA"},{"LATITUDE":-33.9834639416,"LOCALITY_NAME":"NANNUP","LONGITUDE":115.7639294958,"POSTCODE":6275,"STATE_CODE":"WA"},{"LATITUDE":-33.9312507281,"LOCALITY_NAME":"HOPETOUN","LONGITUDE":120.1292692306,"POSTCODE":6348,"STATE_CODE":"WA"},{"LATITUDE":-32.9464621851,"LOCALITY_NAME":"BOUNDAIN","LONGITUDE":117.345866881,"POSTCODE":6312,"STATE_CODE":"WA"},{"LATITUDE":-28.2876878664,"LOCALITY_NAME":"ALMA","LONGITUDE":114.633567022,"POSTCODE":6535,"STATE_CODE":"WA"},{"LATITUDE":-34.7725393757,"LOCALITY_NAME":"NARRIKUP","LONGITUDE":117.7140553039,"POSTCODE":6326,"STATE_CODE":"WA"},{"LATITUDE":-29.6214053712,"LOCALITY_NAME":"BUNJIL","LONGITUDE":116.3992253477,"POSTCODE":6620,"STATE_CODE":"WA"},{"LATITUDE":-31.6375266758,"LOCALITY_NAME":"KATRINE","LONGITUDE":116.5439682497,"POSTCODE":6566,"STATE_CODE":"WA"},{"LATITUDE":-33.7719960761,"LOCALITY_NAME":"WILYABRUP","LONGITUDE":115.0415410128,"POSTCODE":6280,"STATE_CODE":"WA"},{"LATITUDE":-30.763728043,"LOCALITY_NAME":"SOUTH KALGOORLIE","LONGITUDE":121.4786063808,"POSTCODE":6430,"STATE_CODE":"WA"},{"LATITUDE":-33.9352158225,"LOCALITY_NAME":"BURNSIDE","LONGITUDE":115.0285111583,"POSTCODE":6285,"STATE_CODE":"WA"},{"LATITUDE":-33.4809002951,"LOCALITY_NAME":"BOWELLING","LONGITUDE":116.4816798402,"POSTCODE":6225,"STATE_CODE":"WA"},{"LATITUDE":-28.7844655307,"LOCALITY_NAME":"BEACHLANDS","LONGITUDE":114.6034752905,"POSTCODE":6530,"STATE_CODE":"WA"},{"LATITUDE":-32.6398956966,"LOCALITY_NAME":"WEST PINJARRA","LONGITUDE":115.8195058672,"POSTCODE":6208,"STATE_CODE":"WA"},{"LATITUDE":-30.7509766752,"LOCALITY_NAME":"KALGOORLIE","LONGITUDE":121.4704496062,"POSTCODE":6430,"STATE_CODE":"WA"},{"LATITUDE":-31.3059820854,"LOCALITY_NAME":"MOOLIABEENEE","LONGITUDE":116.0714617313,"POSTCODE":6504,"STATE_CODE":"WA"},{"LATITUDE":-31.7701414294,"LOCALITY_NAME":"HOCKING","LONGITUDE":115.8189102957,"POSTCODE":6065,"STATE_CODE":"WA"},{"LATITUDE":-34.2412100782,"LOCALITY_NAME":"MANJIMUP","LONGITUDE":116.144862728,"POSTCODE":6258,"STATE_CODE":"WA"},{"LATITUDE":-32.0745075201,"LOCALITY_NAME":"LEEMING","LONGITUDE":115.8642855693,"POSTCODE":6149,"STATE_CODE":"WA"},{"LATITUDE":-32.5432943278,"LOCALITY_NAME":"HALLS HEAD","LONGITUDE":115.6956752603,"POSTCODE":6210,"STATE_CODE":"WA"},{"LATITUDE":-32.3155008332,"LOCALITY_NAME":"WAIKIKI","LONGITUDE":115.7551391847,"POSTCODE":6169,"STATE_CODE":"WA"},{"LATITUDE":-31.8272450222,"LOCALITY_NAME":"GREENWOOD","LONGITUDE":115.8036136669,"POSTCODE":6024,"STATE_CODE":"WA"},{"LATITUDE":-32.4056648012,"LOCALITY_NAME":"SECRET HARBOUR","LONGITUDE":115.760580726,"POSTCODE":6173,"STATE_CODE":"WA"},{"LATITUDE":-32.3044315381,"LOCALITY_NAME":"SAFETY BAY","LONGITUDE":115.7306924408,"POSTCODE":6169,"STATE_CODE":"WA"},{"LATITUDE":-32.23309253,"LOCALITY_NAME":"ORELIA","LONGITUDE":115.8221819291,"POSTCODE":6167,"STATE_CODE":"WA"},{"LATITUDE":-32.1468967505,"LOCALITY_NAME":"FORRESTDALE","LONGITUDE":115.9471259699,"POSTCODE":6112,"STATE_CODE":"WA"},{"LATITUDE":-31.7631222799,"LOCALITY_NAME":"HEATHRIDGE","LONGITUDE":115.7597249897,"POSTCODE":6027,"STATE_CODE":"WA"},{"LATITUDE":-28.7097050481,"LOCALITY_NAME":"WAGGRAKINE","LONGITUDE":114.645947444,"POSTCODE":6530,"STATE_CODE":"WA"},{"LATITUDE":-32.1575822434,"LOCALITY_NAME":"BANJUP","LONGITUDE":115.8828939051,"POSTCODE":6164,"STATE_CODE":"WA"},{"LATITUDE":-31.7869592422,"LOCALITY_NAME":"CRAIGIE","LONGITUDE":115.7651347825,"POSTCODE":6025,"STATE_CODE":"WA"},{"LATITUDE":-30.6396836388,"LOCALITY_NAME":"MOORA","LONGITUDE":116.0056324343,"POSTCODE":6510,"STATE_CODE":"WA"},{"LATITUDE":-31.8277981725,"LOCALITY_NAME":"SORRENTO","LONGITUDE":115.7541716577,"POSTCODE":6020,"STATE_CODE":"WA"},{"LATITUDE":-31.7928954315,"LOCALITY_NAME":"WANGARA","LONGITUDE":115.8298499324,"POSTCODE":6065,"STATE_CODE":"WA"},{"LATITUDE":-32.0031014293,"LOCALITY_NAME":"QUEENS PARK","LONGITUDE":115.9458042527,"POSTCODE":6107,"STATE_CODE":"WA"},{"LATITUDE":-32.4956145446,"LOCALITY_NAME":"PARKLANDS","LONGITUDE":115.7743224465,"POSTCODE":6180,"STATE_CODE":"WA"},{"LATITUDE":-34.0219451069,"LOCALITY_NAME":"WITCHCLIFFE","LONGITUDE":115.0961508974,"POSTCODE":6286,"STATE_CODE":"WA"},{"LATITUDE":-31.7197934171,"LOCALITY_NAME":"TAPPING","LONGITUDE":115.7960259843,"POSTCODE":6065,"STATE_CODE":"WA"},{"LATITUDE":-33.5803062833,"LOCALITY_NAME":"CHARLEY CREEK","LONGITUDE":115.9081270023,"POSTCODE":6239,"STATE_CODE":"WA"},{"LATITUDE":-31.8335808264,"LOCALITY_NAME":"DUNCRAIG","LONGITUDE":115.7767418003,"POSTCODE":6023,"STATE_CODE":"WA"},{"LATITUDE":-32.1094396325,"LOCALITY_NAME":"BEVERLEY","LONGITUDE":116.9219747547,"POSTCODE":6304,"STATE_CODE":"WA"},{"LATITUDE":-32.248948982,"LOCALITY_NAME":"CARDUP","LONGITUDE":115.9765112827,"POSTCODE":6122,"STATE_CODE":"WA"},{"LATITUDE":-32.0390718019,"LOCALITY_NAME":"BOORAGOON","LONGITUDE":115.8329961537,"POSTCODE":6154,"STATE_CODE":"WA"},{"LATITUDE":-33.653342022,"LOCALITY_NAME":"BUSSELTON","LONGITUDE":115.3499308119,"POSTCODE":6280,"STATE_CODE":"WA"},{"LATITUDE":-31.8682714569,"LOCALITY_NAME":"BEECHBORO","LONGITUDE":115.9384864354,"POSTCODE":6063,"STATE_CODE":"WA"},{"LATITUDE":-32.0597903079,"LOCALITY_NAME":"O'CONNOR","LONGITUDE":115.7923618337,"POSTCODE":6163,"STATE_CODE":"WA"},{"LATITUDE":-33.4817547588,"LOCALITY_NAME":"BOYANUP","LONGITUDE":115.7283020998,"POSTCODE":6237,"STATE_CODE":"WA"},{"LATITUDE":-33.5243660729,"LOCALITY_NAME":"ELGIN","LONGITUDE":115.6360504851,"POSTCODE":6237,"STATE_CODE":"WA"},{"LATITUDE":-31.9787049991,"LOCALITY_NAME":"NEDLANDS","LONGITUDE":115.8058926659,"POSTCODE":6009,"STATE_CODE":"WA"},{"LATITUDE":-32.0140504542,"LOCALITY_NAME":"APPLECROSS","LONGITUDE":115.8387327432,"POSTCODE":6153,"STATE_CODE":"WA"},{"LATITUDE":-32.0038798106,"LOCALITY_NAME":"ROTTNEST ISLAND","LONGITUDE":115.517778411,"POSTCODE":6161,"STATE_CODE":"WA"},{"LATITUDE":-31.8985715201,"LOCALITY_NAME":"SAWYERS VALLEY","LONGITUDE":116.2044891631,"POSTCODE":6074,"STATE_CODE":"WA"},{"LATITUDE":-32.1166409417,"LOCALITY_NAME":"COOGEE","LONGITUDE":115.7705225859,"POSTCODE":6166,"STATE_CODE":"WA"},{"LATITUDE":-32.5275415324,"LOCALITY_NAME":"GREENFIELDS","LONGITUDE":115.7600035647,"POSTCODE":6210,"STATE_CODE":"WA"},{"LATITUDE":-33.705856184,"LOCALITY_NAME":"COOMALBIDGUP","LONGITUDE":121.3052891093,"POSTCODE":6450,"STATE_CODE":"WA"},{"LATITUDE":-27.7213826621,"LOCALITY_NAME":"KALBARRI","LONGITUDE":114.1618137356,"POSTCODE":6536,"STATE_CODE":"WA"},{"LATITUDE":-31.6839239084,"LOCALITY_NAME":"NEERABUP","LONGITUDE":115.7768492408,"POSTCODE":6031,"STATE_CODE":"WA"},{"LATITUDE":-32.957228757,"LOCALITY_NAME":"NARROGIN VALLEY","LONGITUDE":117.232250037,"POSTCODE":6312,"STATE_CODE":"WA"},{"LATITUDE":-31.9769120194,"LOCALITY_NAME":"SOUTH PERTH","LONGITUDE":115.8607637919,"POSTCODE":6151,"STATE_CODE":"WA"},{"LATITUDE":-28.7918050566,"LOCALITY_NAME":"MAHOMETS FLATS","LONGITUDE":114.6139389789,"POSTCODE":6530,"STATE_CODE":"WA"},{"LATITUDE":-31.9123653476,"LOCALITY_NAME":"HAZELMERE","LONGITUDE":116.0033278442,"POSTCODE":6055,"STATE_CODE":"WA"},{"LATITUDE":-34.1039724758,"LOCALITY_NAME":"CHOWERUP","LONGITUDE":116.6987140651,"POSTCODE":6244,"STATE_CODE":"WA"},{"LATITUDE":-32.1157837361,"LOCALITY_NAME":"ROLEYSTONE","LONGITUDE":116.0743148724,"POSTCODE":6111,"STATE_CODE":"WA"},{"LATITUDE":-28.7251058623,"LOCALITY_NAME":"MORESBY","LONGITUDE":114.660217407,"POSTCODE":6530,"STATE_CODE":"WA"},{"LATITUDE":-34.9517370245,"LOCALITY_NAME":"LOWER KING","LONGITUDE":117.940440499,"POSTCODE":6330,"STATE_CODE":"WA"},{"LATITUDE":-31.8840193055,"LOCALITY_NAME":"SWAN VIEW","LONGITUDE":116.0481692888,"POSTCODE":6056,"STATE_CODE":"WA"},{"LATITUDE":-32.0991092918,"LOCALITY_NAME":"BIBRA LAKE","LONGITUDE":115.819048615,"POSTCODE":6163,"STATE_CODE":"WA"},{"LATITUDE":-31.642613957,"LOCALITY_NAME":"JINDALEE","LONGITUDE":115.6884305117,"POSTCODE":6036,"STATE_CODE":"WA"},{"LATITUDE":-31.4467189683,"LOCALITY_NAME":"CUNJARDINE","LONGITUDE":116.851365815,"POSTCODE":6401,"STATE_CODE":"WA"},{"LATITUDE":-33.7296980331,"LOCALITY_NAME":"CARROLUP","LONGITUDE":117.396676112,"POSTCODE":6317,"STATE_CODE":"WA"},{"LATITUDE":-32.0465842509,"LOCALITY_NAME":"PARKWOOD","LONGITUDE":115.9129616402,"POSTCODE":6147,"STATE_CODE":"WA"},{"LATITUDE":-31.9822558581,"LOCALITY_NAME":"KENSINGTON","LONGITUDE":115.8824461782,"POSTCODE":6151,"STATE_CODE":"WA"},{"LATITUDE":-30.7791206391,"LOCALITY_NAME":"BOULDER","LONGITUDE":121.483227688,"POSTCODE":6432,"STATE_CODE":"WA"},{"LATITUDE":-33.3982710467,"LOCALITY_NAME":"DARDANUP WEST","LONGITUDE":115.7291036537,"POSTCODE":6236,"STATE_CODE":"WA"},{"LATITUDE":-28.28879504,"LOCALITY_NAME":"NOLBA","LONGITUDE":114.846533575,"POSTCODE":6532,"STATE_CODE":"WA"},{"LATITUDE":-33.80340722,"LOCALITY_NAME":"JACUP","LONGITUDE":119.1582025922,"POSTCODE":6337,"STATE_CODE":"WA"},{"LATITUDE":-33.6726913769,"LOCALITY_NAME":"KEALY","LONGITUDE":115.2399366131,"POSTCODE":6280,"STATE_CODE":"WA"},{"LATITUDE":-33.6823347377,"LOCALITY_NAME":"WEST FITZGERALD","LONGITUDE":119.3714391723,"POSTCODE":6337,"STATE_CODE":"WA"},{"LATITUDE":-32.2464824071,"LOCALITY_NAME":"BERTRAM","LONGITUDE":115.8447110692,"POSTCODE":6167,"STATE_CODE":"WA"},{"LATITUDE":-29.4944865776,"LOCALITY_NAME":"WOMARDEN","LONGITUDE":115.8452207713,"POSTCODE":6519,"STATE_CODE":"WA"},{"LATITUDE":-32.1236163791,"LOCALITY_NAME":"COCKBURN CENTRAL","LONGITUDE":115.8498783146,"POSTCODE":6164,"STATE_CODE":"WA"},{"LATITUDE":-32.198845139,"LOCALITY_NAME":"NAVAL BASE","LONGITUDE":115.7847911759,"POSTCODE":6165,"STATE_CODE":"WA"},{"LATITUDE":-33.9031432057,"LOCALITY_NAME":"BARRABUP","LONGITUDE":115.7101488611,"POSTCODE":6275,"STATE_CODE":"WA"},{"LATITUDE":-33.7831584971,"LOCALITY_NAME":"BALINGUP","LONGITUDE":115.9882024095,"POSTCODE":6253,"STATE_CODE":"WA"},{"LATITUDE":-29.2799935255,"LOCALITY_NAME":"SPRINGFIELD","LONGITUDE":114.9532501146,"POSTCODE":6525,"STATE_CODE":"WA"},{"LATITUDE":-32.5462160631,"LOCALITY_NAME":"DUDLEY PARK","LONGITUDE":115.7317664887,"POSTCODE":6210,"STATE_CODE":"WA"},{"LATITUDE":-35.0154886671,"LOCALITY_NAME":"MIRA MAR","LONGITUDE":117.9004859001,"POSTCODE":6330,"STATE_CODE":"WA"},{"LATITUDE":-31.8142942964,"LOCALITY_NAME":"WHITEMAN","LONGITUDE":115.9401867811,"POSTCODE":6068,"STATE_CODE":"WA"},{"LATITUDE":-29.252972879,"LOCALITY_NAME":"MILO","LONGITUDE":115.13824655,"POSTCODE":6525,"STATE_CODE":"WA"},{"LATITUDE":-31.6809020208,"LOCALITY_NAME":"EUCLA","LONGITUDE":128.8765539546,"POSTCODE":6443,"STATE_CODE":"WA"},{"LATITUDE":-31.939611262,"LOCALITY_NAME":"WEST LEEDERVILLE","LONGITUDE":115.8344383376,"POSTCODE":6007,"STATE_CODE":"WA"},{"LATITUDE":-33.874077036,"LOCALITY_NAME":"WEST BEACH","LONGITUDE":121.8802747369,"POSTCODE":6450,"STATE_CODE":"WA"},{"LATITUDE":-32.2468645803,"LOCALITY_NAME":"KWINANA TOWN CENTRE","LONGITUDE":115.8144679657,"POSTCODE":6167,"STATE_CODE":"WA"},{"LATITUDE":-32.4443620068,"LOCALITY_NAME":"SINGLETON","LONGITUDE":115.7558900317,"POSTCODE":6175,"STATE_CODE":"WA"},{"LATITUDE":-33.8373535896,"LOCALITY_NAME":"CHADWICK","LONGITUDE":121.8877952895,"POSTCODE":6450,"STATE_CODE":"WA"},{"LATITUDE":-33.3459289601,"LOCALITY_NAME":"LORT RIVER","LONGITUDE":121.3936003818,"POSTCODE":6447,"STATE_CODE":"WA"},{"LATITUDE":-31.932540869,"LOCALITY_NAME":"LEEDERVILLE","LONGITUDE":115.8417788539,"POSTCODE":6007,"STATE_CODE":"WA"},{"LATITUDE":-31.9070839753,"LOCALITY_NAME":"WOODLANDS","LONGITUDE":115.7936254817,"POSTCODE":6018,"STATE_CODE":"WA"},{"LATITUDE":-31.9807996815,"LOCALITY_NAME":"CRAWLEY","LONGITUDE":115.8183189407,"POSTCODE":6009,"STATE_CODE":"WA"},{"LATITUDE":-32.5116207701,"LOCALITY_NAME":"NORTH DANDALUP","LONGITUDE":115.9590816239,"POSTCODE":6207,"STATE_CODE":"WA"},{"LATITUDE":-31.9100154377,"LOCALITY_NAME":"SOUTH GUILDFORD","LONGITUDE":115.9790923546,"POSTCODE":6055,"STATE_CODE":"WA"},{"LATITUDE":-33.6683678475,"LOCALITY_NAME":"BOVELL","LONGITUDE":115.3574840754,"POSTCODE":6280,"STATE_CODE":"WA"},{"LATITUDE":-31.9151025445,"LOCALITY_NAME":"DARLINGTON","LONGITUDE":116.0772046562,"POSTCODE":6070,"STATE_CODE":"WA"},{"LATITUDE":-15.7737133411,"LOCALITY_NAME":"KUNUNURRA","LONGITUDE":128.740892784,"POSTCODE":6743,"STATE_CODE":"WA"},{"LATITUDE":-20.7659038457,"LOCALITY_NAME":"ROEBOURNE","LONGITUDE":117.1470803198,"POSTCODE":6718,"STATE_CODE":"WA"},{"LATITUDE":-31.7488342323,"LOCALITY_NAME":"CONNOLLY","LONGITUDE":115.7495376711,"POSTCODE":6027,"STATE_CODE":"WA"},{"LATITUDE":-31.7748712413,"LOCALITY_NAME":"BELDON","LONGITUDE":115.7629729186,"POSTCODE":6027,"STATE_CODE":"WA"},{"LATITUDE":-31.8738087649,"LOCALITY_NAME":"TRIGG","LONGITUDE":115.7580453094,"POSTCODE":6029,"STATE_CODE":"WA"},{"LATITUDE":-32.6598959564,"LOCALITY_NAME":"POPANYINNING","LONGITUDE":117.1281286664,"POSTCODE":6309,"STATE_CODE":"WA"},{"LATITUDE":-31.7687992048,"LOCALITY_NAME":"WUNDOWIE","LONGITUDE":116.3725699014,"POSTCODE":6560,"STATE_CODE":"WA"},{"LATITUDE":-31.8745596064,"LOCALITY_NAME":"NORANDA","LONGITUDE":115.8971895259,"POSTCODE":6062,"STATE_CODE":"WA"},{"LATITUDE":-31.8083871114,"LOCALITY_NAME":"HILLARYS","LONGITUDE":115.7452451099,"POSTCODE":6025,"STATE_CODE":"WA"},{"LATITUDE":-32.5802369389,"LOCALITY_NAME":"FALCON","LONGITUDE":115.6619262799,"POSTCODE":6210,"STATE_CODE":"WA"},{"LATITUDE":-31.5164546725,"LOCALITY_NAME":"JULIMAR","LONGITUDE":116.3171638446,"POSTCODE":6567,"STATE_CODE":"WA"},{"LATITUDE":-31.5314186209,"LOCALITY_NAME":"NUNILE","LONGITUDE":116.4985485846,"POSTCODE":6566,"STATE_CODE":"WA"},{"LATITUDE":-33.8636829542,"LOCALITY_NAME":"SINCLAIR","LONGITUDE":121.8761580967,"POSTCODE":6450,"STATE_CODE":"WA"},{"LATITUDE":-32.0396288035,"LOCALITY_NAME":"ROSSMOYNE","LONGITUDE":115.868474468,"POSTCODE":6148,"STATE_CODE":"WA"},{"LATITUDE":-31.660831823,"LOCALITY_NAME":"RIDGEWOOD","LONGITUDE":115.7218573233,"POSTCODE":6030,"STATE_CODE":"WA"},{"LATITUDE":-31.8038515762,"LOCALITY_NAME":"HENLEY BROOK","LONGITUDE":115.9811527584,"POSTCODE":6055,"STATE_CODE":"WA"},{"LATITUDE":-33.3616664719,"LOCALITY_NAME":"DAVENPORT","LONGITUDE":115.674409821,"POSTCODE":6230,"STATE_CODE":"WA"},{"LATITUDE":-32.2411193277,"LOCALITY_NAME":"DALE","LONGITUDE":116.7504635279,"POSTCODE":6304,"STATE_CODE":"WA"},{"LATITUDE":-31.9403518771,"LOCALITY_NAME":"HIGHGATE","LONGITUDE":115.870879094,"POSTCODE":6003,"STATE_CODE":"WA"},{"LATITUDE":-33.3738994357,"LOCALITY_NAME":"BUCKINGHAM","LONGITUDE":116.3325014619,"POSTCODE":6225,"STATE_CODE":"WA"},{"LATITUDE":-33.4265800753,"LOCALITY_NAME":"MUJA","LONGITUDE":116.3618433311,"POSTCODE":6225,"STATE_CODE":"WA"},{"LATITUDE":-31.3550894648,"LOCALITY_NAME":"BODALLIN","LONGITUDE":118.8826417067,"POSTCODE":6424,"STATE_CODE":"WA"},{"LATITUDE":-32.7838415071,"LOCALITY_NAME":"WICKEPIN","LONGITUDE":117.505846733,"POSTCODE":6370,"STATE_CODE":"WA"},{"LATITUDE":-32.0815202439,"LOCALITY_NAME":"NORTH LAKE","LONGITUDE":115.8312128922,"POSTCODE":6163,"STATE_CODE":"WA"},{"LATITUDE":-33.9619222697,"LOCALITY_NAME":"SCOTTS BROOK","LONGITUDE":116.6428424238,"POSTCODE":6244,"STATE_CODE":"WA"},{"LATITUDE":-34.3022254754,"LOCALITY_NAME":"MIDDLESEX","LONGITUDE":116.1539102505,"POSTCODE":6258,"STATE_CODE":"WA"},{"LATITUDE":-34.3979675986,"LOCALITY_NAME":"EASTBROOK","LONGITUDE":116.0803533422,"POSTCODE":6260,"STATE_CODE":"WA"},{"LATITUDE":-34.9882143308,"LOCALITY_NAME":"MARBELUP","LONGITUDE":117.7796955102,"POSTCODE":6330,"STATE_CODE":"WA"},{"LATITUDE":-20.7402179948,"LOCALITY_NAME":"GAP RIDGE","LONGITUDE":116.7693848052,"POSTCODE":6714,"STATE_CODE":"WA"},{"LATITUDE":-33.6391641566,"LOCALITY_NAME":"PAYNEDALE","LONGITUDE":115.7561164466,"POSTCODE":6239,"STATE_CODE":"WA"},{"LATITUDE":-32.0027471641,"LOCALITY_NAME":"BICKLEY","LONGITUDE":116.0931674202,"POSTCODE":6076,"STATE_CODE":"WA"},{"LATITUDE":-32.8785860739,"LOCALITY_NAME":"PRESTON BEACH","LONGITUDE":115.657087116,"POSTCODE":6215,"STATE_CODE":"WA"},{"LATITUDE":-33.6436305466,"LOCALITY_NAME":"UPPER CAPEL","LONGITUDE":115.8150620194,"POSTCODE":6239,"STATE_CODE":"WA"},{"LATITUDE":-31.5566254898,"LOCALITY_NAME":"TOODYAY","LONGITUDE":116.4591742496,"POSTCODE":6566,"STATE_CODE":"WA"},{"LATITUDE":-31.8085159134,"LOCALITY_NAME":"MADELEY","LONGITUDE":115.8262505038,"POSTCODE":6065,"STATE_CODE":"WA"},{"LATITUDE":-32.4301149447,"LOCALITY_NAME":"KARNUP","LONGITUDE":115.7784676303,"POSTCODE":6176,"STATE_CODE":"WA"},{"LATITUDE":-35.0315134884,"LOCALITY_NAME":"ROBINSON","LONGITUDE":117.8381945389,"POSTCODE":6330,"STATE_CODE":"WA"},{"LATITUDE":-31.8748518328,"LOCALITY_NAME":"KARRINYUP","LONGITUDE":115.777553744,"POSTCODE":6018,"STATE_CODE":"WA"},{"LATITUDE":-33.6386518461,"LOCALITY_NAME":"QUINDALUP","LONGITUDE":115.1190574725,"POSTCODE":6281,"STATE_CODE":"WA"},{"LATITUDE":-31.8525425322,"LOCALITY_NAME":"CARINE","LONGITUDE":115.7803588969,"POSTCODE":6020,"STATE_CODE":"WA"},{"LATITUDE":-31.8754144426,"LOCALITY_NAME":"BALCATTA","LONGITUDE":115.8232966311,"POSTCODE":6021,"STATE_CODE":"WA"},{"LATITUDE":-31.8501072009,"LOCALITY_NAME":"HAMERSLEY","LONGITUDE":115.8117248643,"POSTCODE":6022,"STATE_CODE":"WA"},{"LATITUDE":-31.857086753,"LOCALITY_NAME":"MALAGA","LONGITUDE":115.891333841,"POSTCODE":6090,"STATE_CODE":"WA"},{"LATITUDE":-32.2821688348,"LOCALITY_NAME":"WHITBY","LONGITUDE":115.9989493522,"POSTCODE":6123,"STATE_CODE":"WA"},{"LATITUDE":-32.5499286794,"LOCALITY_NAME":"COODANUP","LONGITUDE":115.750555765,"POSTCODE":6210,"STATE_CODE":"WA"},{"LATITUDE":-31.5611400572,"LOCALITY_NAME":"LOWER CHITTERING","LONGITUDE":116.0676224903,"POSTCODE":6084,"STATE_CODE":"WA"},{"LATITUDE":-33.439438371,"LOCALITY_NAME":"SCADDAN","LONGITUDE":121.7376921921,"POSTCODE":6447,"STATE_CODE":"WA"},{"LATITUDE":-33.7940394885,"LOCALITY_NAME":"MONJINGUP","LONGITUDE":121.8294072569,"POSTCODE":6450,"STATE_CODE":"WA"},{"LATITUDE":-33.7802741466,"LOCALITY_NAME":"MYRUP","LONGITUDE":121.9322840593,"POSTCODE":6450,"STATE_CODE":"WA"},{"LATITUDE":-33.2991081055,"LOCALITY_NAME":"PALMER","LONGITUDE":116.2429635721,"POSTCODE":6225,"STATE_CODE":"WA"},{"LATITUDE":-28.6543648859,"LOCALITY_NAME":"WHITE PEAK","LONGITUDE":114.6409444945,"POSTCODE":6532,"STATE_CODE":"WA"},{"LATITUDE":-32.4964326187,"LOCALITY_NAME":"MEADOW SPRINGS","LONGITUDE":115.7541773825,"POSTCODE":6210,"STATE_CODE":"WA"},{"LATITUDE":-32.190346387,"LOCALITY_NAME":"MANDOGALUP","LONGITUDE":115.8455540457,"POSTCODE":6167,"STATE_CODE":"WA"},{"LATITUDE":-28.6567439945,"LOCALITY_NAME":"BULLER","LONGITUDE":114.6229166348,"POSTCODE":6532,"STATE_CODE":"WA"},{"LATITUDE":-20.7304545391,"LOCALITY_NAME":"BULGARRA","LONGITUDE":116.8584689443,"POSTCODE":6714,"STATE_CODE":"WA"},{"LATITUDE":-33.9440242902,"LOCALITY_NAME":"ROSA BROOK","LONGITUDE":115.2002505593,"POSTCODE":6285,"STATE_CODE":"WA"},{"LATITUDE":-33.7725432839,"LOCALITY_NAME":"DINNINUP","LONGITUDE":116.5297656016,"POSTCODE":6244,"STATE_CODE":"WA"},{"LATITUDE":-32.1154886154,"LOCALITY_NAME":"CHAMPION LAKES","LONGITUDE":115.9918358392,"POSTCODE":6111,"STATE_CODE":"WA"},{"LATITUDE":-34.1901446906,"LOCALITY_NAME":"KARRIDALE","LONGITUDE":115.1154952323,"POSTCODE":6288,"STATE_CODE":"WA"},{"LATITUDE":-28.628314324,"LOCALITY_NAME":"NARRA TARRA","LONGITUDE":114.7439073483,"POSTCODE":6532,"STATE_CODE":"WA"},{"LATITUDE":-34.3162743227,"LOCALITY_NAME":"AUGUSTA","LONGITUDE":115.1571290696,"POSTCODE":6290,"STATE_CODE":"WA"},{"LATITUDE":-34.3990062585,"LOCALITY_NAME":"BREMER BAY","LONGITUDE":119.3692312959,"POSTCODE":6338,"STATE_CODE":"WA"},{"LATITUDE":-34.7128983581,"LOCALITY_NAME":"DENBARKER","LONGITUDE":117.4440481226,"POSTCODE":6324,"STATE_CODE":"WA"},{"LATITUDE":-31.8971626181,"LOCALITY_NAME":"TUART HILL","LONGITUDE":115.8348280561,"POSTCODE":6060,"STATE_CODE":"WA"},{"LATITUDE":-31.6425113294,"LOCALITY_NAME":"BUTLER","LONGITUDE":115.7041090514,"POSTCODE":6036,"STATE_CODE":"WA"},{"LATITUDE":-30.7697374684,"LOCALITY_NAME":"SOMERVILLE","LONGITUDE":121.4541526049,"POSTCODE":6430,"STATE_CODE":"WA"},{"LATITUDE":-20.741875255,"LOCALITY_NAME":"MILLARS WELL","LONGITUDE":116.8178271097,"POSTCODE":6714,"STATE_CODE":"WA"},{"LATITUDE":-32.1682333267,"LOCALITY_NAME":"AUBIN GROVE","LONGITUDE":115.8620824594,"POSTCODE":6164,"STATE_CODE":"WA"},{"LATITUDE":-32.0274956623,"LOCALITY_NAME":"ORANGE GROVE","LONGITUDE":116.017459025,"POSTCODE":6109,"STATE_CODE":"WA"},{"LATITUDE":-33.6868078398,"LOCALITY_NAME":"YALLINGUP SIDING","LONGITUDE":115.0970161727,"POSTCODE":6282,"STATE_CODE":"WA"},{"LATITUDE":-32.5857988598,"LOCALITY_NAME":"FAIRBRIDGE","LONGITUDE":115.9457294578,"POSTCODE":6208,"STATE_CODE":"WA"},{"LATITUDE":-31.8849770366,"LOCALITY_NAME":"STIRLING","LONGITUDE":115.8123250419,"POSTCODE":6021,"STATE_CODE":"WA"},{"LATITUDE":-34.2143353288,"LOCALITY_NAME":"BALBARRUP","LONGITUDE":116.1982322723,"POSTCODE":6258,"STATE_CODE":"WA"},{"LATITUDE":-31.9201081043,"LOCALITY_NAME":"MOUNT HAWTHORN","LONGITUDE":115.8353895268,"POSTCODE":6016,"STATE_CODE":"WA"},{"LATITUDE":-35.0520162678,"LOCALITY_NAME":"LOWLANDS","LONGITUDE":117.5158140976,"POSTCODE":6330,"STATE_CODE":"WA"},{"LATITUDE":-35.0061372393,"LOCALITY_NAME":"SPENCER PARK","LONGITUDE":117.8983378394,"POSTCODE":6330,"STATE_CODE":"WA"},{"LATITUDE":-33.9428965836,"LOCALITY_NAME":"MAYANUP","LONGITUDE":116.4726320185,"POSTCODE":6244,"STATE_CODE":"WA"},{"LATITUDE":-32.0152930034,"LOCALITY_NAME":"WATERFORD","LONGITUDE":115.8878793059,"POSTCODE":6152,"STATE_CODE":"WA"},{"LATITUDE":-31.9093394252,"LOCALITY_NAME":"BALLADONG","LONGITUDE":116.753229135,"POSTCODE":6302,"STATE_CODE":"WA"},{"LATITUDE":-31.8709578603,"LOCALITY_NAME":"GWELUP","LONGITUDE":115.7951509194,"POSTCODE":6018,"STATE_CODE":"WA"},{"LATITUDE":-31.4392913119,"LOCALITY_NAME":"DEWARS POOL","LONGITUDE":116.3864369589,"POSTCODE":6567,"STATE_CODE":"WA"},{"LATITUDE":-31.9276454202,"LOCALITY_NAME":"CITY BEACH","LONGITUDE":115.7639771,"POSTCODE":6015,"STATE_CODE":"WA"},{"LATITUDE":-34.2497819351,"LOCALITY_NAME":"DEANMILL","LONGITUDE":116.0897214985,"POSTCODE":6258,"STATE_CODE":"WA"},{"LATITUDE":-31.9195060885,"LOCALITY_NAME":"GLENDALOUGH","LONGITUDE":115.8199707224,"POSTCODE":6016,"STATE_CODE":"WA"},{"LATITUDE":-31.9674685983,"LOCALITY_NAME":"LATHLAIN","LONGITUDE":115.9053600664,"POSTCODE":6100,"STATE_CODE":"WA"},{"LATITUDE":-33.6603684352,"LOCALITY_NAME":"BROADWATER","LONGITUDE":115.2832515891,"POSTCODE":6280,"STATE_CODE":"WA"},{"LATITUDE":-33.19547224,"LOCALITY_NAME":"YOURDAMUNG LAKE","LONGITUDE":116.28800155,"POSTCODE":6225,"STATE_CODE":"WA"},{"LATITUDE":-32.7659095855,"LOCALITY_NAME":"EAST WICKEPIN","LONGITUDE":117.7142666974,"POSTCODE":6370,"STATE_CODE":"WA"},{"LATITUDE":-33.7628192503,"LOCALITY_NAME":"BOYATUP","LONGITUDE":123.0671364741,"POSTCODE":6450,"STATE_CODE":"WA"},{"LATITUDE":-31.8694802444,"LOCALITY_NAME":"MOUNT HELENA","LONGITUDE":116.2089487468,"POSTCODE":6082,"STATE_CODE":"WA"},{"LATITUDE":-34.0216774898,"LOCALITY_NAME":"SUNNYSIDE","LONGITUDE":116.2360967316,"POSTCODE":6256,"STATE_CODE":"WA"},{"LATITUDE":-34.1040654575,"LOCALITY_NAME":"BORANUP","LONGITUDE":115.0257022125,"POSTCODE":6286,"STATE_CODE":"WA"},{"LATITUDE":-32.185986661,"LOCALITY_NAME":"BALLY BALLY","LONGITUDE":117.1033000662,"POSTCODE":6304,"STATE_CODE":"WA"},{"LATITUDE":-34.9652083919,"LOCALITY_NAME":"SHADFORTH","LONGITUDE":117.3014328873,"POSTCODE":6333,"STATE_CODE":"WA"},{"LATITUDE":-30.4651924747,"LOCALITY_NAME":"COOMBERDALE","LONGITUDE":116.0442715348,"POSTCODE":6512,"STATE_CODE":"WA"},{"LATITUDE":-32.2391275857,"LOCALITY_NAME":"KWINANA BEACH","LONGITUDE":115.7797050854,"POSTCODE":6167,"STATE_CODE":"WA"},{"LATITUDE":-33.7918248139,"LOCALITY_NAME":"KULIKUP","LONGITUDE":116.6836681843,"POSTCODE":6244,"STATE_CODE":"WA"},{"LATITUDE":-31.9600831054,"LOCALITY_NAME":"SHENTON PARK","LONGITUDE":115.8136684747,"POSTCODE":6008,"STATE_CODE":"WA"},{"LATITUDE":-34.2130604779,"LOCALITY_NAME":"RINGBARK","LONGITUDE":116.1151060298,"POSTCODE":6258,"STATE_CODE":"WA"},{"LATITUDE":-31.8423714175,"LOCALITY_NAME":"KOONDOOLA","LONGITUDE":115.8617475556,"POSTCODE":6064,"STATE_CODE":"WA"},{"LATITUDE":-31.7812556895,"LOCALITY_NAME":"GNANGARA","LONGITUDE":115.859348679,"POSTCODE":6077,"STATE_CODE":"WA"},{"LATITUDE":-31.883302162,"LOCALITY_NAME":"KIARA","LONGITUDE":115.9377857546,"POSTCODE":6054,"STATE_CODE":"WA"},{"LATITUDE":-32.122528731,"LOCALITY_NAME":"YANGEBUP","LONGITUDE":115.8096730199,"POSTCODE":6164,"STATE_CODE":"WA"},{"LATITUDE":-32.0323008351,"LOCALITY_NAME":"NORTH FREMANTLE","LONGITUDE":115.7540563343,"POSTCODE":6159,"STATE_CODE":"WA"},{"LATITUDE":-33.8602821372,"LOCALITY_NAME":"ESPERANCE","LONGITUDE":121.8900543972,"POSTCODE":6450,"STATE_CODE":"WA"},{"LATITUDE":-32.1389489277,"LOCALITY_NAME":"BABAKIN","LONGITUDE":118.0401366675,"POSTCODE":6428,"STATE_CODE":"WA"},{"LATITUDE":-33.6667780291,"LOCALITY_NAME":"YALYALUP","LONGITUDE":115.3850448232,"POSTCODE":6280,"STATE_CODE":"WA"},{"LATITUDE":-28.8094336952,"LOCALITY_NAME":"TARCOOLA BEACH","LONGITUDE":114.6226763457,"POSTCODE":6530,"STATE_CODE":"WA"},{"LATITUDE":-18.192653729,"LOCALITY_NAME":"FITZROY CROSSING","LONGITUDE":125.5674469487,"POSTCODE":6765,"STATE_CODE":"WA"},{"LATITUDE":-32.2925473255,"LOCALITY_NAME":"MUNDIJONG","LONGITUDE":115.9860872482,"POSTCODE":6123,"STATE_CODE":"WA"},{"LATITUDE":-31.9193282871,"LOCALITY_NAME":"INGLEWOOD","LONGITUDE":115.8846846791,"POSTCODE":6052,"STATE_CODE":"WA"},{"LATITUDE":-33.6343647647,"LOCALITY_NAME":"QUEDJINUP","LONGITUDE":115.0849868346,"POSTCODE":6281,"STATE_CODE":"WA"},{"LATITUDE":-31.8001793934,"LOCALITY_NAME":"WOOROLOO","LONGITUDE":116.3128872887,"POSTCODE":6558,"STATE_CODE":"WA"},{"LATITUDE":-24.8668389307,"LOCALITY_NAME":"EAST CARNARVON","LONGITUDE":113.6781274101,"POSTCODE":6701,"STATE_CODE":"WA"},{"LATITUDE":-31.8939725193,"LOCALITY_NAME":"COLD HARBOUR","LONGITUDE":116.802031058,"POSTCODE":6302,"STATE_CODE":"WA"},{"LATITUDE":-32.0221759579,"LOCALITY_NAME":"SALTER POINT","LONGITUDE":115.8670351673,"POSTCODE":6152,"STATE_CODE":"WA"},{"LATITUDE":-33.8359123248,"LOCALITY_NAME":"BOYUP BROOK","LONGITUDE":116.3848789709,"POSTCODE":6244,"STATE_CODE":"WA"},{"LATITUDE":-33.3875643715,"LOCALITY_NAME":"HENTY","LONGITUDE":115.8365695485,"POSTCODE":6236,"STATE_CODE":"WA"},{"LATITUDE":-35.0063369556,"LOCALITY_NAME":"GLEDHOW","LONGITUDE":117.8380772788,"POSTCODE":6330,"STATE_CODE":"WA"},{"LATITUDE":-32.7135995905,"LOCALITY_NAME":"MALYALLING","LONGITUDE":117.5903529119,"POSTCODE":6370,"STATE_CODE":"WA"},{"LATITUDE":-33.9641097113,"LOCALITY_NAME":"KANGAROO GULLY","LONGITUDE":116.1803983188,"POSTCODE":6255,"STATE_CODE":"WA"},{"LATITUDE":-29.5623901037,"LOCALITY_NAME":"ARROWSMITH EAST","LONGITUDE":115.3629539422,"POSTCODE":6519,"STATE_CODE":"WA"},{"LATITUDE":-34.6786423016,"LOCALITY_NAME":"PORONGURUP","LONGITUDE":117.8897826557,"POSTCODE":6324,"STATE_CODE":"WA"},{"LATITUDE":-34.8932296386,"LOCALITY_NAME":"NORTH WALPOLE","LONGITUDE":116.7090995114,"POSTCODE":6398,"STATE_CODE":"WA"},{"LATITUDE":-31.8813933012,"LOCALITY_NAME":"YORK","LONGITUDE":116.7704287845,"POSTCODE":6302,"STATE_CODE":"WA"},{"LATITUDE":-34.8776079038,"LOCALITY_NAME":"GREEN VALLEY","LONGITUDE":117.8125632125,"POSTCODE":6330,"STATE_CODE":"WA"},{"LATITUDE":-33.3999613263,"LOCALITY_NAME":"COLLIE BURN","LONGITUDE":116.1959431938,"POSTCODE":6225,"STATE_CODE":"WA"},{"LATITUDE":-33.1477519062,"LOCALITY_NAME":"BINNINGUP","LONGITUDE":115.6937785884,"POSTCODE":6233,"STATE_CODE":"WA"},{"LATITUDE":-34.0911449613,"LOCALITY_NAME":"CARLOTTA","LONGITUDE":115.7901390229,"POSTCODE":6275,"STATE_CODE":"WA"},{"LATITUDE":-32.9495174454,"LOCALITY_NAME":"TOOLIBIN","LONGITUDE":117.6312868007,"POSTCODE":6312,"STATE_CODE":"WA"},{"LATITUDE":-30.7344298576,"LOCALITY_NAME":"LAMINGTON","LONGITUDE":121.4615527487,"POSTCODE":6430,"STATE_CODE":"WA"},{"LATITUDE":-29.6951587649,"LOCALITY_NAME":"CARNAMAH","LONGITUDE":115.8914744462,"POSTCODE":6517,"STATE_CODE":"WA"},{"LATITUDE":-31.5367988451,"LOCALITY_NAME":"BUCKLAND","LONGITUDE":116.6229488109,"POSTCODE":6401,"STATE_CODE":"WA"},{"LATITUDE":-33.7242073982,"LOCALITY_NAME":"HOWICK","LONGITUDE":122.7969944149,"POSTCODE":6450,"STATE_CODE":"WA"},{"LATITUDE":-28.8916535783,"LOCALITY_NAME":"LEONORA","LONGITUDE":121.335856437,"POSTCODE":6438,"STATE_CODE":"WA"},{"LATITUDE":-31.8777169667,"LOCALITY_NAME":"VIVEASH","LONGITUDE":115.9999373178,"POSTCODE":6056,"STATE_CODE":"WA"},{"LATITUDE":-28.7519273022,"LOCALITY_NAME":"WEBBERTON","LONGITUDE":114.632815852,"POSTCODE":6530,"STATE_CODE":"WA"},{"LATITUDE":-32.7143491594,"LOCALITY_NAME":"DWELLINGUP","LONGITUDE":116.0676037222,"POSTCODE":6213,"STATE_CODE":"WA"},{"LATITUDE":-35.0235534298,"LOCALITY_NAME":"MIDDLETON BEACH","LONGITUDE":117.910496072,"POSTCODE":6330,"STATE_CODE":"WA"},{"LATITUDE":-35.0245562721,"LOCALITY_NAME":"ALBANY","LONGITUDE":117.8835875847,"POSTCODE":6330,"STATE_CODE":"WA"},{"LATITUDE":-31.7060176543,"LOCALITY_NAME":"TAMALA PARK","LONGITUDE":115.7230523,"POSTCODE":6030,"STATE_CODE":"WA"},{"LATITUDE":-15.4869043835,"LOCALITY_NAME":"WYNDHAM","LONGITUDE":128.1268422746,"POSTCODE":6740,"STATE_CODE":"WA"},{"LATITUDE":-33.7033540085,"LOCALITY_NAME":"CARBUNUP RIVER","LONGITUDE":115.1704882682,"POSTCODE":6280,"STATE_CODE":"WA"},{"LATITUDE":-30.7346205218,"LOCALITY_NAME":"KARLKURLA","LONGITUDE":121.4486537058,"POSTCODE":6430,"STATE_CODE":"WA"},{"LATITUDE":-34.0340830768,"LOCALITY_NAME":"EAST NANNUP","LONGITUDE":115.8226603354,"POSTCODE":6275,"STATE_CODE":"WA"},{"LATITUDE":-31.9468567585,"LOCALITY_NAME":"JOLIMONT","LONGITUDE":115.8117356467,"POSTCODE":6014,"STATE_CODE":"WA"},{"LATITUDE":-28.6731520887,"LOCALITY_NAME":"DRUMMOND COVE","LONGITUDE":114.6159956805,"POSTCODE":6532,"STATE_CODE":"WA"},{"LATITUDE":-33.3763446156,"LOCALITY_NAME":"COLLEGE GROVE","LONGITUDE":115.6528794147,"POSTCODE":6230,"STATE_CODE":"WA"},{"LATITUDE":-33.2926733337,"LOCALITY_NAME":"ROELANDS","LONGITUDE":115.7939615649,"POSTCODE":6226,"STATE_CODE":"WA"},{"LATITUDE":-31.9003950682,"LOCALITY_NAME":"BELLEVUE","LONGITUDE":116.0297613984,"POSTCODE":6056,"STATE_CODE":"WA"},{"LATITUDE":-31.9511601213,"LOCALITY_NAME":"DAGLISH","LONGITUDE":115.8100907398,"POSTCODE":6008,"STATE_CODE":"WA"},{"LATITUDE":-33.349816558,"LOCALITY_NAME":"ARTHUR RIVER","LONGITUDE":117.0140433429,"POSTCODE":6315,"STATE_CODE":"WA"},{"LATITUDE":-20.6644616789,"LOCALITY_NAME":"DAMPIER","LONGITUDE":116.7118072321,"POSTCODE":6713,"STATE_CODE":"WA"},{"LATITUDE":-30.747874986,"LOCALITY_NAME":"WEST LAMINGTON","LONGITUDE":121.4548711446,"POSTCODE":6430,"STATE_CODE":"WA"},{"LATITUDE":-34.9263412073,"LOCALITY_NAME":"KALGAN","LONGITUDE":118.0028680261,"POSTCODE":6330,"STATE_CODE":"WA"},{"LATITUDE":-31.8275676827,"LOCALITY_NAME":"ALEXANDER HEIGHTS","LONGITUDE":115.8642113999,"POSTCODE":6064,"STATE_CODE":"WA"},{"LATITUDE":-29.4455012393,"LOCALITY_NAME":"PERENJORI","LONGITUDE":116.2913943177,"POSTCODE":6620,"STATE_CODE":"WA"},{"LATITUDE":-28.7529804979,"LOCALITY_NAME":"STRATHALBYN","LONGITUDE":114.6451525611,"POSTCODE":6530,"STATE_CODE":"WA"},{"LATITUDE":-30.5954992067,"LOCALITY_NAME":"BALLIDU","LONGITUDE":116.7709271809,"POSTCODE":6606,"STATE_CODE":"WA"},{"LATITUDE":-30.503029789,"LOCALITY_NAME":"CERVANTES","LONGITUDE":115.0675330496,"POSTCODE":6511,"STATE_CODE":"WA"},{"LATITUDE":-32.0118097257,"LOCALITY_NAME":"TALBOT","LONGITUDE":116.6740389564,"POSTCODE":6302,"STATE_CODE":"WA"},{"LATITUDE":-33.9373928796,"LOCALITY_NAME":"GNOWANGERUP","LONGITUDE":118.0059532187,"POSTCODE":6335,"STATE_CODE":"WA"},{"LATITUDE":-31.3468139505,"LOCALITY_NAME":"GUILDERTON","LONGITUDE":115.5024778445,"POSTCODE":6041,"STATE_CODE":"WA"},{"LATITUDE":-31.9177704175,"LOCALITY_NAME":"ASHFIELD","LONGITUDE":115.9377755174,"POSTCODE":6054,"STATE_CODE":"WA"},{"LATITUDE":-33.6535716828,"LOCALITY_NAME":"MARYBROOK","LONGITUDE":115.195218453,"POSTCODE":6280,"STATE_CODE":"WA"},{"LATITUDE":-31.9624962039,"LOCALITY_NAME":"GWAMBYGINE","LONGITUDE":116.7956466147,"POSTCODE":6302,"STATE_CODE":"WA"},{"LATITUDE":-31.9595122052,"LOCALITY_NAME":"BALKULING","LONGITUDE":117.1591928614,"POSTCODE":6383,"STATE_CODE":"WA"},{"LATITUDE":-33.060903801,"LOCALITY_NAME":"UDUC","LONGITUDE":115.8025028067,"POSTCODE":6220,"STATE_CODE":"WA"},{"LATITUDE":-33.5348756834,"LOCALITY_NAME":"LOWDEN","LONGITUDE":115.9678042901,"POSTCODE":6240,"STATE_CODE":"WA"},{"LATITUDE":-34.987750335,"LOCALITY_NAME":"MILPARA","LONGITUDE":117.8658982267,"POSTCODE":6330,"STATE_CODE":"WA"},{"LATITUDE":-26.5916185962,"LOCALITY_NAME":"MEEKATHARRA","LONGITUDE":118.5053550091,"POSTCODE":6642,"STATE_CODE":"WA"},{"LATITUDE":-34.2771757883,"LOCALITY_NAME":"DINGUP","LONGITUDE":116.2404901515,"POSTCODE":6258,"STATE_CODE":"WA"},{"LATITUDE":-29.1769592687,"LOCALITY_NAME":"IKEWA","LONGITUDE":115.5370248658,"POSTCODE":6522,"STATE_CODE":"WA"},{"LATITUDE":-32.1982892492,"LOCALITY_NAME":"NORSEMAN","LONGITUDE":121.7617789796,"POSTCODE":6443,"STATE_CODE":"WA"},{"LATITUDE":-31.7578460971,"LOCALITY_NAME":"THE VINES","LONGITUDE":116.0052328552,"POSTCODE":6069,"STATE_CODE":"WA"},{"LATITUDE":-34.9968907904,"LOCALITY_NAME":"ORANA","LONGITUDE":117.8570233937,"POSTCODE":6330,"STATE_CODE":"WA"},{"LATITUDE":-31.841480063,"LOCALITY_NAME":"MARMION","LONGITUDE":115.7567195915,"POSTCODE":6020,"STATE_CODE":"WA"},{"LATITUDE":-34.9223269512,"LOCALITY_NAME":"KORDABUP","LONGITUDE":117.152502703,"POSTCODE":6333,"STATE_CODE":"WA"},{"LATITUDE":-32.6896622108,"LOCALITY_NAME":"WANDERING","LONGITUDE":116.6669124602,"POSTCODE":6308,"STATE_CODE":"WA"},{"LATITUDE":-32.4805018932,"LOCALITY_NAME":"STAKE HILL","LONGITUDE":115.7957085193,"POSTCODE":6181,"STATE_CODE":"WA"},{"LATITUDE":-33.3332895154,"LOCALITY_NAME":"ALLANSON","LONGITUDE":116.0921267445,"POSTCODE":6225,"STATE_CODE":"WA"},{"LATITUDE":-32.2195746485,"LOCALITY_NAME":"THE SPECTACLES","LONGITUDE":115.841247467,"POSTCODE":6167,"STATE_CODE":"WA"},{"LATITUDE":-31.4874795565,"LOCALITY_NAME":"COONDLE","LONGITUDE":116.41876991,"POSTCODE":6566,"STATE_CODE":"WA"},{"LATITUDE":-32.746103839,"LOCALITY_NAME":"COOLUP","LONGITUDE":115.8716055156,"POSTCODE":6214,"STATE_CODE":"WA"},{"LATITUDE":-31.6382557383,"LOCALITY_NAME":"GRASS VALLEY","LONGITUDE":116.7983160601,"POSTCODE":6403,"STATE_CODE":"WA"},{"LATITUDE":-31.5272780914,"LOCALITY_NAME":"WEST TOODYAY","LONGITUDE":116.4128555375,"POSTCODE":6566,"STATE_CODE":"WA"},{"LATITUDE":-33.6376795779,"LOCALITY_NAME":"GIBSON","LONGITUDE":121.8237250849,"POSTCODE":6448,"STATE_CODE":"WA"},{"LATITUDE":-32.793908074,"LOCALITY_NAME":"RANFORD","LONGITUDE":116.4933985153,"POSTCODE":6390,"STATE_CODE":"WA"},{"LATITUDE":-31.9648958419,"LOCALITY_NAME":"MOUNT CLAREMONT","LONGITUDE":115.7811433261,"POSTCODE":6010,"STATE_CODE":"WA"},{"LATITUDE":-32.6722166901,"LOCALITY_NAME":"KULIN","LONGITUDE":118.1581740168,"POSTCODE":6365,"STATE_CODE":"WA"},{"LATITUDE":-33.6206846142,"LOCALITY_NAME":"WONNERUP","LONGITUDE":115.4143951021,"POSTCODE":6280,"STATE_CODE":"WA"},{"LATITUDE":-31.7703701837,"LOCALITY_NAME":"UPPER SWAN","LONGITUDE":116.0289901003,"POSTCODE":6069,"STATE_CODE":"WA"},{"LATITUDE":-32.3920800206,"LOCALITY_NAME":"JELCOBINE","LONGITUDE":116.7236093038,"POSTCODE":6306,"STATE_CODE":"WA"},{"LATITUDE":-32.5329890927,"LOCALITY_NAME":"PINGELLY","LONGITUDE":117.0852436553,"POSTCODE":6308,"STATE_CODE":"WA"},{"LATITUDE":-29.2661307917,"LOCALITY_NAME":"PORT DENISON","LONGITUDE":114.9265068386,"POSTCODE":6525,"STATE_CODE":"WA"},{"LATITUDE":-32.1073364635,"LOCALITY_NAME":"JANDAKOT","LONGITUDE":115.8632024667,"POSTCODE":6164,"STATE_CODE":"WA"},{"LATITUDE":-32.2618594339,"LOCALITY_NAME":"LEDA","LONGITUDE":115.8061796884,"POSTCODE":6170,"STATE_CODE":"WA"},{"LATITUDE":-31.8509438618,"LOCALITY_NAME":"CHIDLOW","LONGITUDE":116.2688447238,"POSTCODE":6556,"STATE_CODE":"WA"},{"LATITUDE":-34.1405399062,"LOCALITY_NAME":"NILLUP","LONGITUDE":115.2657880342,"POSTCODE":6288,"STATE_CODE":"WA"},{"LATITUDE":-28.7638096239,"LOCALITY_NAME":"WOORREE","LONGITUDE":114.6583674776,"POSTCODE":6530,"STATE_CODE":"WA"},{"LATITUDE":-30.2819021762,"LOCALITY_NAME":"HILL RIVER","LONGITUDE":115.3107386977,"POSTCODE":6521,"STATE_CODE":"WA"},{"LATITUDE":-34.6537769296,"LOCALITY_NAME":"BOORARA BROOK","LONGITUDE":116.1698556789,"POSTCODE":6262,"STATE_CODE":"WA"},{"LATITUDE":-33.6048803721,"LOCALITY_NAME":"MOOJEBING","LONGITUDE":117.5274918631,"POSTCODE":6317,"STATE_CODE":"WA"},{"LATITUDE":-20.7393094753,"LOCALITY_NAME":"NICKOL","LONGITUDE":116.8021904278,"POSTCODE":6714,"STATE_CODE":"WA"},{"LATITUDE":-34.3730448472,"LOCALITY_NAME":"TENTERDEN","LONGITUDE":117.5309462816,"POSTCODE":6322,"STATE_CODE":"WA"},{"LATITUDE":-33.5490419017,"LOCALITY_NAME":"NYABING","LONGITUDE":118.1526473611,"POSTCODE":6341,"STATE_CODE":"WA"},{"LATITUDE":-31.3863552678,"LOCALITY_NAME":"BEJOORDING","LONGITUDE":116.524834278,"POSTCODE":6566,"STATE_CODE":"WA"},{"LATITUDE":-31.3190993993,"LOCALITY_NAME":"NEERGABBY","LONGITUDE":115.6577090073,"POSTCODE":6503,"STATE_CODE":"WA"},{"LATITUDE":-33.082014023,"LOCALITY_NAME":"MYALUP","LONGITUDE":115.7083266625,"POSTCODE":6220,"STATE_CODE":"WA"},{"LATITUDE":-31.3291745252,"LOCALITY_NAME":"MUCKENBURRA","LONGITUDE":115.7645782442,"POSTCODE":6503,"STATE_CODE":"WA"},{"LATITUDE":-17.9860370676,"LOCALITY_NAME":"MINYIRR","LONGITUDE":122.2052309529,"POSTCODE":6725,"STATE_CODE":"WA"},{"LATITUDE":-33.8454070764,"LOCALITY_NAME":"BROOMEHILL VILLAGE","LONGITUDE":117.6388160584,"POSTCODE":6318,"STATE_CODE":"WA"},{"LATITUDE":-32.3296012017,"LOCALITY_NAME":"CORRIGIN","LONGITUDE":117.878358902,"POSTCODE":6375,"STATE_CODE":"WA"},{"LATITUDE":-24.8684681685,"LOCALITY_NAME":"INGGARDA","LONGITUDE":113.781016827,"POSTCODE":6701,"STATE_CODE":"WA"},{"LATITUDE":-29.1921538208,"LOCALITY_NAME":"MINGENEW","LONGITUDE":115.4416477583,"POSTCODE":6522,"STATE_CODE":"WA"},{"LATITUDE":-31.1344885577,"LOCALITY_NAME":"BENJABERRING","LONGITUDE":117.2923717394,"POSTCODE":6463,"STATE_CODE":"WA"},{"LATITUDE":-34.9474856223,"LOCALITY_NAME":"WILLYUNG","LONGITUDE":117.8744688111,"POSTCODE":6330,"STATE_CODE":"WA"},{"LATITUDE":-20.3743879039,"LOCALITY_NAME":"WEDGEFIELD","LONGITUDE":118.5904877496,"POSTCODE":6721,"STATE_CODE":"WA"},{"LATITUDE":-31.8684850295,"LOCALITY_NAME":"STONEVILLE","LONGITUDE":116.1704872383,"POSTCODE":6081,"STATE_CODE":"WA"},{"LATITUDE":-31.2064865676,"LOCALITY_NAME":"SOUTH KUNUNOPPIN","LONGITUDE":117.9093897733,"POSTCODE":6489,"STATE_CODE":"WA"},{"LATITUDE":-32.5769959664,"LOCALITY_NAME":"NORTH YUNDERUP","LONGITUDE":115.7964677914,"POSTCODE":6208,"STATE_CODE":"WA"},{"LATITUDE":-31.6323340104,"LOCALITY_NAME":"KELLERBERRIN","LONGITUDE":117.7177743592,"POSTCODE":6410,"STATE_CODE":"WA"},{"LATITUDE":-31.1650207293,"LOCALITY_NAME":"WANNAMAL","LONGITUDE":116.1044172562,"POSTCODE":6505,"STATE_CODE":"WA"},{"LATITUDE":-31.7080834017,"LOCALITY_NAME":"THROSSELL","LONGITUDE":116.8142363039,"POSTCODE":6401,"STATE_CODE":"WA"},{"LATITUDE":-31.8564278597,"LOCALITY_NAME":"WOOTTATING","LONGITUDE":116.4372330324,"POSTCODE":6562,"STATE_CODE":"WA"},{"LATITUDE":-34.025467927,"LOCALITY_NAME":"DARTNALL","LONGITUDE":117.7599223157,"POSTCODE":6320,"STATE_CODE":"WA"},{"LATITUDE":-31.5673133521,"LOCALITY_NAME":"SOUTHERN BROOK","LONGITUDE":116.8194659738,"POSTCODE":6401,"STATE_CODE":"WA"},{"LATITUDE":-34.0931189191,"LOCALITY_NAME":"MOONIES HILL","LONGITUDE":117.5422010869,"POSTCODE":6320,"STATE_CODE":"WA"},{"LATITUDE":-33.9442459995,"LOCALITY_NAME":"JERRAMUNGUP","LONGITUDE":118.9262340634,"POSTCODE":6337,"STATE_CODE":"WA"},{"LATITUDE":-33.8672527381,"LOCALITY_NAME":"BROOMEHILL WEST","LONGITUDE":117.4846139264,"POSTCODE":6318,"STATE_CODE":"WA"},{"LATITUDE":-32.0359120216,"LOCALITY_NAME":"PICKERING BROOK","LONGITUDE":116.130379963,"POSTCODE":6076,"STATE_CODE":"WA"},{"LATITUDE":-33.6720522101,"LOCALITY_NAME":"NEWLANDS","LONGITUDE":115.8676899262,"POSTCODE":6251,"STATE_CODE":"WA"},{"LATITUDE":-33.5618097897,"LOCALITY_NAME":"BEELERUP","LONGITUDE":115.8524971605,"POSTCODE":6239,"STATE_CODE":"WA"},{"LATITUDE":-33.0324645792,"LOCALITY_NAME":"QUINDANNING","LONGITUDE":116.5315546133,"POSTCODE":6391,"STATE_CODE":"WA"},{"LATITUDE":-30.7255275493,"LOCALITY_NAME":"CATABY","LONGITUDE":115.5348460886,"POSTCODE":6507,"STATE_CODE":"WA"},{"LATITUDE":-30.6468776094,"LOCALITY_NAME":"DANDARAGAN","LONGITUDE":115.7173400159,"POSTCODE":6507,"STATE_CODE":"WA"},{"LATITUDE":-35.006855943,"LOCALITY_NAME":"YOUNGS SIDING","LONGITUDE":117.51710044,"POSTCODE":6330,"STATE_CODE":"WA"},{"LATITUDE":-34.8358272698,"LOCALITY_NAME":"MANYPEAKS","LONGITUDE":118.1794815467,"POSTCODE":6328,"STATE_CODE":"WA"},{"LATITUDE":-33.7062550232,"LOCALITY_NAME":"AMBERGATE","LONGITUDE":115.3365803153,"POSTCODE":6280,"STATE_CODE":"WA"},{"LATITUDE":-33.717525906,"LOCALITY_NAME":"YOONGARILLUP","LONGITUDE":115.4312726804,"POSTCODE":6280,"STATE_CODE":"WA"},{"LATITUDE":-31.3238154126,"LOCALITY_NAME":"WATTENING","LONGITUDE":116.4738615023,"POSTCODE":6568,"STATE_CODE":"WA"},{"LATITUDE":-32.9078377669,"LOCALITY_NAME":"HILLSIDE","LONGITUDE":117.1963489117,"POSTCODE":6312,"STATE_CODE":"WA"},{"LATITUDE":-32.1821139543,"LOCALITY_NAME":"SOUTH KUMMININ","LONGITUDE":118.4473067538,"POSTCODE":6368,"STATE_CODE":"WA"},{"LATITUDE":-32.515709591,"LOCALITY_NAME":"EAST PINGELLY","LONGITUDE":117.2597988051,"POSTCODE":6308,"STATE_CODE":"WA"},{"LATITUDE":-31.8399240454,"LOCALITY_NAME":"WARWICK","LONGITUDE":115.8057481315,"POSTCODE":6024,"STATE_CODE":"WA"},{"LATITUDE":-29.812327691,"LOCALITY_NAME":"ENEABBA","LONGITUDE":115.1935668726,"POSTCODE":6518,"STATE_CODE":"WA"},{"LATITUDE":-33.7452357489,"LOCALITY_NAME":"CONDINGUP","LONGITUDE":122.5174910304,"POSTCODE":6450,"STATE_CODE":"WA"},{"LATITUDE":-31.2298220429,"LOCALITY_NAME":"SOUTHERN CROSS","LONGITUDE":119.3275808784,"POSTCODE":6426,"STATE_CODE":"WA"},{"LATITUDE":-28.8874612115,"LOCALITY_NAME":"GEORGINA","LONGITUDE":114.7659281522,"POSTCODE":6532,"STATE_CODE":"WA"},{"LATITUDE":-28.7203885428,"LOCALITY_NAME":"SUNSET BEACH","LONGITUDE":114.6237438374,"POSTCODE":6530,"STATE_CODE":"WA"},{"LATITUDE":-28.5378165071,"LOCALITY_NAME":"MULLEWA","LONGITUDE":115.5129525131,"POSTCODE":6630,"STATE_CODE":"WA"},{"LATITUDE":-29.2114939216,"LOCALITY_NAME":"MORAWA","LONGITUDE":116.0086737274,"POSTCODE":6623,"STATE_CODE":"WA"},{"LATITUDE":-28.7998120691,"LOCALITY_NAME":"MOUNT TARCOOLA","LONGITUDE":114.625666183,"POSTCODE":6530,"STATE_CODE":"WA"},{"LATITUDE":-32.2469022961,"LOCALITY_NAME":"CALISTA","LONGITUDE":115.8072221968,"POSTCODE":6167,"STATE_CODE":"WA"},{"LATITUDE":-33.4360138385,"LOCALITY_NAME":"CASCADE","LONGITUDE":121.074776426,"POSTCODE":6450,"STATE_CODE":"WA"},{"LATITUDE":-31.4295737316,"LOCALITY_NAME":"BAMBUN","LONGITUDE":115.8860022077,"POSTCODE":6503,"STATE_CODE":"WA"},{"LATITUDE":-31.3710700052,"LOCALITY_NAME":"LENNARD BROOK","LONGITUDE":115.9340835986,"POSTCODE":6503,"STATE_CODE":"WA"},{"LATITUDE":-31.0861365671,"LOCALITY_NAME":"CALINGIRI","LONGITUDE":116.4561066692,"POSTCODE":6569,"STATE_CODE":"WA"},{"LATITUDE":-33.8470148855,"LOCALITY_NAME":"GREENBUSHES","LONGITUDE":116.0560476228,"POSTCODE":6254,"STATE_CODE":"WA"},{"LATITUDE":-33.0473480328,"LOCALITY_NAME":"WARAWARRUP","LONGITUDE":115.9029748551,"POSTCODE":6220,"STATE_CODE":"WA"},{"LATITUDE":-32.3806986949,"LOCALITY_NAME":"HOPELAND","LONGITUDE":115.8855599737,"POSTCODE":6125,"STATE_CODE":"WA"},{"LATITUDE":-33.0316296084,"LOCALITY_NAME":"WILLIAMS","LONGITUDE":116.8355815334,"POSTCODE":6391,"STATE_CODE":"WA"},{"LATITUDE":-34.8947889742,"LOCALITY_NAME":"REDMOND WEST","LONGITUDE":117.55911713,"POSTCODE":6327,"STATE_CODE":"WA"},{"LATITUDE":-32.2054802687,"LOCALITY_NAME":"OAKFORD","LONGITUDE":115.9374898809,"POSTCODE":6121,"STATE_CODE":"WA"},{"LATITUDE":-33.6893599925,"LOCALITY_NAME":"MUNGLINUP","LONGITUDE":120.8075340569,"POSTCODE":6450,"STATE_CODE":"WA"},{"LATITUDE":-33.7911380153,"LOCALITY_NAME":"JERDACUTTUP","LONGITUDE":120.4071835719,"POSTCODE":6346,"STATE_CODE":"WA"},{"LATITUDE":-35.0551395967,"LOCALITY_NAME":"KRONKUP","LONGITUDE":117.6233872372,"POSTCODE":6330,"STATE_CODE":"WA"},{"LATITUDE":-33.4121577833,"LOCALITY_NAME":"GELORUP","LONGITUDE":115.6387410344,"POSTCODE":6230,"STATE_CODE":"WA"},{"LATITUDE":-35.0406996158,"LOCALITY_NAME":"BORNHOLM","LONGITUDE":117.5820832939,"POSTCODE":6330,"STATE_CODE":"WA"},{"LATITUDE":-31.2314272044,"LOCALITY_NAME":"KARRANADGIN","LONGITUDE":116.7311765002,"POSTCODE":6460,"STATE_CODE":"WA"},{"LATITUDE":-33.2354151058,"LOCALITY_NAME":"MOULYINNING","LONGITUDE":117.9457804387,"POSTCODE":6351,"STATE_CODE":"WA"},{"LATITUDE":-33.1194627074,"LOCALITY_NAME":"NORTH KUKERIN","LONGITUDE":118.0506091609,"POSTCODE":6352,"STATE_CODE":"WA"},{"LATITUDE":-31.3299755589,"LOCALITY_NAME":"UCARTY WEST","LONGITUDE":116.8948208853,"POSTCODE":6460,"STATE_CODE":"WA"},{"LATITUDE":-31.1878423981,"LOCALITY_NAME":"WALYORMOURING","LONGITUDE":116.8754995735,"POSTCODE":6460,"STATE_CODE":"WA"},{"LATITUDE":-32.5031546845,"LOCALITY_NAME":"BULLARING","LONGITUDE":117.740378174,"POSTCODE":6373,"STATE_CODE":"WA"},{"LATITUDE":-30.132394937,"LOCALITY_NAME":"GUNYIDI","LONGITUDE":116.1786594605,"POSTCODE":6513,"STATE_CODE":"WA"},{"LATITUDE":-33.318108135,"LOCALITY_NAME":"MERILUP","LONGITUDE":118.1791284156,"POSTCODE":6352,"STATE_CODE":"WA"},{"LATITUDE":-33.6674587306,"LOCALITY_NAME":"MARRACOONDA","LONGITUDE":117.4534330889,"POSTCODE":6317,"STATE_CODE":"WA"},{"LATITUDE":-31.753068793,"LOCALITY_NAME":"DAADENNING CREEK","LONGITUDE":117.7875264065,"POSTCODE":6410,"STATE_CODE":"WA"},{"LATITUDE":-29.0346441121,"LOCALITY_NAME":"HOLMWOOD","LONGITUDE":115.5837878421,"POSTCODE":6522,"STATE_CODE":"WA"},{"LATITUDE":-32.9817811837,"LOCALITY_NAME":"DUMBERNING","LONGITUDE":117.1355117089,"POSTCODE":6312,"STATE_CODE":"WA"},{"LATITUDE":-33.1939351038,"LOCALITY_NAME":"PIESSEVILLE","LONGITUDE":117.2445505721,"POSTCODE":6315,"STATE_CODE":"WA"},{"LATITUDE":-34.9176999986,"LOCALITY_NAME":"HAZELVALE","LONGITUDE":116.823772573,"POSTCODE":6333,"STATE_CODE":"WA"},{"LATITUDE":-33.4072282547,"LOCALITY_NAME":"WEDGECARRUP","LONGITUDE":117.1905925221,"POSTCODE":6315,"STATE_CODE":"WA"},{"LATITUDE":-33.9186040406,"LOCALITY_NAME":"PALLINUP","LONGITUDE":117.9639234454,"POSTCODE":6335,"STATE_CODE":"WA"},{"LATITUDE":-28.9223253458,"LOCALITY_NAME":"GREENOUGH","LONGITUDE":114.710008043,"POSTCODE":6532,"STATE_CODE":"WA"},{"LATITUDE":-33.5667622065,"LOCALITY_NAME":"NATURALISTE","LONGITUDE":115.0403273585,"POSTCODE":6281,"STATE_CODE":"WA"},{"LATITUDE":-32.1439408323,"LOCALITY_NAME":"SOUTH QUAIRADING","LONGITUDE":117.3612078045,"POSTCODE":6383,"STATE_CODE":"WA"},{"LATITUDE":-31.3113259341,"LOCALITY_NAME":"UCARTY","LONGITUDE":117.0219052607,"POSTCODE":6462,"STATE_CODE":"WA"},{"LATITUDE":-32.0079291573,"LOCALITY_NAME":"EAST BEVERLEY","LONGITUDE":117.107466506,"POSTCODE":6304,"STATE_CODE":"WA"},{"LATITUDE":-30.8409995461,"LOCALITY_NAME":"YATHROO","LONGITUDE":115.7669701337,"POSTCODE":6507,"STATE_CODE":"WA"},{"LATITUDE":-31.8200069458,"LOCALITY_NAME":"SOUTH YILGARN","LONGITUDE":119.2855206458,"POSTCODE":6426,"STATE_CODE":"WA"},{"LATITUDE":-31.9408969184,"LOCALITY_NAME":"REDCLIFFE","LONGITUDE":115.9447932981,"POSTCODE":6104,"STATE_CODE":"WA"},{"LATITUDE":-33.9483178312,"LOCALITY_NAME":"WINNEJUP","LONGITUDE":116.284306637,"POSTCODE":6255,"STATE_CODE":"WA"},{"LATITUDE":-31.9052409289,"LOCALITY_NAME":"MAHOGANY CREEK","LONGITUDE":116.1349992289,"POSTCODE":6072,"STATE_CODE":"WA"},{"LATITUDE":-32.439115567,"LOCALITY_NAME":"HYDEN","LONGITUDE":118.9411967044,"POSTCODE":6359,"STATE_CODE":"WA"},{"LATITUDE":-33.3112969122,"LOCALITY_NAME":"DUMBLEYUNG","LONGITUDE":117.7459095648,"POSTCODE":6350,"STATE_CODE":"WA"},{"LATITUDE":-33.5395579952,"LOCALITY_NAME":"PINGRUP","LONGITUDE":118.6060380548,"POSTCODE":6343,"STATE_CODE":"WA"},{"LATITUDE":-20.6769154128,"LOCALITY_NAME":"WICKHAM","LONGITUDE":117.1386979988,"POSTCODE":6720,"STATE_CODE":"WA"},{"LATITUDE":-32.0429316142,"LOCALITY_NAME":"DANGIN","LONGITUDE":117.3329577441,"POSTCODE":6383,"STATE_CODE":"WA"},{"LATITUDE":-21.8889800648,"LOCALITY_NAME":"NULLAGINE","LONGITUDE":120.1182164603,"POSTCODE":6758,"STATE_CODE":"WA"},{"LATITUDE":-34.193044567,"LOCALITY_NAME":"YANMAH","LONGITUDE":116.0212097326,"POSTCODE":6258,"STATE_CODE":"WA"},{"LATITUDE":-32.7914195559,"LOCALITY_NAME":"CROSSMAN","LONGITUDE":116.5772249671,"POSTCODE":6390,"STATE_CODE":"WA"},{"LATITUDE":-35.0189114435,"LOCALITY_NAME":"NULLAKI","LONGITUDE":117.4034137333,"POSTCODE":6330,"STATE_CODE":"WA"},{"LATITUDE":-33.3758313859,"LOCALITY_NAME":"PARADISE","LONGITUDE":115.7639435358,"POSTCODE":6236,"STATE_CODE":"WA"},{"LATITUDE":-32.29855061,"LOCALITY_NAME":"KURRENKUTTEN","LONGITUDE":118.1160377167,"POSTCODE":6375,"STATE_CODE":"WA"},{"LATITUDE":-32.8942314177,"LOCALITY_NAME":"YILLIMINNING","LONGITUDE":117.4371107984,"POSTCODE":6312,"STATE_CODE":"WA"},{"LATITUDE":-33.0689439568,"LOCALITY_NAME":"HIGHBURY","LONGITUDE":117.2285607596,"POSTCODE":6313,"STATE_CODE":"WA"},{"LATITUDE":-33.0172114411,"LOCALITY_NAME":"NOMANS LAKE","LONGITUDE":117.4937068926,"POSTCODE":6312,"STATE_CODE":"WA"},{"LATITUDE":-33.9807233047,"LOCALITY_NAME":"NEEDILUP","LONGITUDE":118.7573330644,"POSTCODE":6336,"STATE_CODE":"WA"},{"LATITUDE":-28.0645705986,"LOCALITY_NAME":"MOUNT MAGNET","LONGITUDE":117.8531255485,"POSTCODE":6638,"STATE_CODE":"WA"},{"LATITUDE":-30.5455432191,"LOCALITY_NAME":"BURAKIN","LONGITUDE":117.1602749587,"POSTCODE":6467,"STATE_CODE":"WA"},{"LATITUDE":-29.176811263,"LOCALITY_NAME":"LOCKIER","LONGITUDE":115.310555065,"POSTCODE":6522,"STATE_CODE":"WA"},{"LATITUDE":-31.0060851715,"LOCALITY_NAME":"COWCOWING","LONGITUDE":117.4686407746,"POSTCODE":6485,"STATE_CODE":"WA"},{"LATITUDE":-33.2370595891,"LOCALITY_NAME":"COLLANILLING","LONGITUDE":117.5253219164,"POSTCODE":6315,"STATE_CODE":"WA"},{"LATITUDE":-34.2567190088,"LOCALITY_NAME":"AMELUP","LONGITUDE":118.2426469755,"POSTCODE":6338,"STATE_CODE":"WA"},{"LATITUDE":-33.8862104287,"LOCALITY_NAME":"JACKITUP","LONGITUDE":118.1060966312,"POSTCODE":6335,"STATE_CODE":"WA"},{"LATITUDE":-30.5770748819,"LOCALITY_NAME":"WEST BALLIDU","LONGITUDE":116.6365423458,"POSTCODE":6606,"STATE_CODE":"WA"},{"LATITUDE":-27.9247287169,"LOCALITY_NAME":"AJANA","LONGITUDE":114.6637237411,"POSTCODE":6532,"STATE_CODE":"WA"},{"LATITUDE":-28.0275211066,"LOCALITY_NAME":"BINNU","LONGITUDE":114.7687985256,"POSTCODE":6532,"STATE_CODE":"WA"},{"LATITUDE":-28.155605838,"LOCALITY_NAME":"OGILVIE","LONGITUDE":114.7305740893,"POSTCODE":6535,"STATE_CODE":"WA"},{"LATITUDE":-31.2230078175,"LOCALITY_NAME":"KORRELOCKING","LONGITUDE":117.4912866232,"POSTCODE":6485,"STATE_CODE":"WA"},{"LATITUDE":-33.2978704776,"LOCALITY_NAME":"BALLAYING","LONGITUDE":117.5920005486,"POSTCODE":6315,"STATE_CODE":"WA"},{"LATITUDE":-32.0065164487,"LOCALITY_NAME":"BADJALING","LONGITUDE":117.50371255,"POSTCODE":6383,"STATE_CODE":"WA"},{"LATITUDE":-31.6327696432,"LOCALITY_NAME":"HODDYS WELL","LONGITUDE":116.4614879715,"POSTCODE":6566,"STATE_CODE":"WA"},{"LATITUDE":-31.8633952258,"LOCALITY_NAME":"DOODENANNING","LONGITUDE":117.1884458065,"POSTCODE":6383,"STATE_CODE":"WA"},{"LATITUDE":-31.0455746733,"LOCALITY_NAME":"KOOMBERKINE","LONGITUDE":117.0347640516,"POSTCODE":6461,"STATE_CODE":"WA"},{"LATITUDE":-33.2080759635,"LOCALITY_NAME":"SOUTH NEWDEGATE","LONGITUDE":119.0253882894,"POSTCODE":6355,"STATE_CODE":"WA"},{"LATITUDE":-34.5372820505,"LOCALITY_NAME":"WOOGENELLUP","LONGITUDE":117.8858430665,"POSTCODE":6324,"STATE_CODE":"WA"},{"LATITUDE":-30.8092032859,"LOCALITY_NAME":"BENCUBBIN","LONGITUDE":117.8609290039,"POSTCODE":6477,"STATE_CODE":"WA"},{"LATITUDE":-30.7738816947,"LOCALITY_NAME":"GABBIN","LONGITUDE":117.677237843,"POSTCODE":6476,"STATE_CODE":"WA"},{"LATITUDE":-33.7836548578,"LOCALITY_NAME":"METRICUP","LONGITUDE":115.1273519481,"POSTCODE":6280,"STATE_CODE":"WA"},{"LATITUDE":-31.1316767422,"LOCALITY_NAME":"OLD PLAINS","LONGITUDE":116.3573265849,"POSTCODE":6569,"STATE_CODE":"WA"},{"LATITUDE":-30.393141354,"LOCALITY_NAME":"PITHARA","LONGITUDE":116.6725906261,"POSTCODE":6608,"STATE_CODE":"WA"},{"LATITUDE":-30.2018982048,"LOCALITY_NAME":"TAMPU","LONGITUDE":117.8103559878,"POSTCODE":6472,"STATE_CODE":"WA"},{"LATITUDE":-31.4419425925,"LOCALITY_NAME":"WATERCARRIN","LONGITUDE":117.2563416332,"POSTCODE":6407,"STATE_CODE":"WA"},{"LATITUDE":-31.1871598198,"LOCALITY_NAME":"WYALKATCHEM","LONGITUDE":117.3812525345,"POSTCODE":6485,"STATE_CODE":"WA"},{"LATITUDE":-31.533651455,"LOCALITY_NAME":"SOUTH BODALLIN","LONGITUDE":118.8876286121,"POSTCODE":6424,"STATE_CODE":"WA"},{"LATITUDE":-31.7542241888,"LOCALITY_NAME":"MOUNT HAMPTON","LONGITUDE":119.009069105,"POSTCODE":6426,"STATE_CODE":"WA"},{"LATITUDE":-32.2966343573,"LOCALITY_NAME":"COOLOONGUP","LONGITUDE":115.7596341716,"POSTCODE":6168,"STATE_CODE":"WA"},{"LATITUDE":-22.6882658082,"LOCALITY_NAME":"TOM PRICE","LONGITUDE":117.7902171491,"POSTCODE":6751,"STATE_CODE":"WA"},{"LATITUDE":-24.8466858214,"LOCALITY_NAME":"SOUTH PLANTATIONS","LONGITUDE":113.7449314181,"POSTCODE":6701,"STATE_CODE":"WA"},{"LATITUDE":-31.6694463603,"LOCALITY_NAME":"MORANGUP","LONGITUDE":116.2990209436,"POSTCODE":6083,"STATE_CODE":"WA"},{"LATITUDE":-31.3456008718,"LOCALITY_NAME":"GINGIN","LONGITUDE":115.9090783533,"POSTCODE":6503,"STATE_CODE":"WA"},{"LATITUDE":-32.6831510914,"LOCALITY_NAME":"BOUVARD","LONGITUDE":115.6567798166,"POSTCODE":6211,"STATE_CODE":"WA"},{"LATITUDE":-32.741955354,"LOCALITY_NAME":"YORNANING","LONGITUDE":117.1665492326,"POSTCODE":6311,"STATE_CODE":"WA"},{"LATITUDE":-30.8336925969,"LOCALITY_NAME":"PIAWANING","LONGITUDE":116.3863684457,"POSTCODE":6572,"STATE_CODE":"WA"},{"LATITUDE":-31.8911678758,"LOCALITY_NAME":"WOODBRIDGE","LONGITUDE":115.9947571504,"POSTCODE":6056,"STATE_CODE":"WA"},{"LATITUDE":-31.9541402343,"LOCALITY_NAME":"MAIDA VALE","LONGITUDE":116.0227063702,"POSTCODE":6057,"STATE_CODE":"WA"},{"LATITUDE":-33.2964836238,"LOCALITY_NAME":"MINDING","LONGITUDE":117.1665404717,"POSTCODE":6315,"STATE_CODE":"WA"},{"LATITUDE":-34.0862740619,"LOCALITY_NAME":"COWALELLUP","LONGITUDE":118.5764978375,"POSTCODE":6336,"STATE_CODE":"WA"},{"LATITUDE":-33.7865136564,"LOCALITY_NAME":"CHAPMAN HILL","LONGITUDE":115.3284342889,"POSTCODE":6280,"STATE_CODE":"WA"},{"LATITUDE":-31.6544236146,"LOCALITY_NAME":"KORBEL","LONGITUDE":118.1358676665,"POSTCODE":6415,"STATE_CODE":"WA"},{"LATITUDE":-33.7333968742,"LOCALITY_NAME":"NORTH JINDONG","LONGITUDE":115.1882568511,"POSTCODE":6280,"STATE_CODE":"WA"},{"LATITUDE":-30.8843278781,"LOCALITY_NAME":"MOCARDY","LONGITUDE":116.8689897862,"POSTCODE":6603,"STATE_CODE":"WA"},{"LATITUDE":-34.3145693062,"LOCALITY_NAME":"EAST AUGUSTA","LONGITUDE":115.1693054057,"POSTCODE":6290,"STATE_CODE":"WA"},{"LATITUDE":-33.1837947554,"LOCALITY_NAME":"BENGER","LONGITUDE":115.8499199202,"POSTCODE":6223,"STATE_CODE":"WA"},{"LATITUDE":-33.1166100291,"LOCALITY_NAME":"WOKALUP","LONGITUDE":115.8652556983,"POSTCODE":6221,"STATE_CODE":"WA"},{"LATITUDE":-31.513764777,"LOCALITY_NAME":"NORTH TAMMIN","LONGITUDE":117.521651354,"POSTCODE":6409,"STATE_CODE":"WA"},{"LATITUDE":-32.1123301161,"LOCALITY_NAME":"MORBINNING","LONGITUDE":117.1745692252,"POSTCODE":6304,"STATE_CODE":"WA"},{"LATITUDE":-30.709341845,"LOCALITY_NAME":"GABALONG","LONGITUDE":116.3978159663,"POSTCODE":6574,"STATE_CODE":"WA"},{"LATITUDE":-30.3962286236,"LOCALITY_NAME":"CLEARY","LONGITUDE":117.6833344409,"POSTCODE":6472,"STATE_CODE":"WA"},{"LATITUDE":-30.461344428,"LOCALITY_NAME":"MARNE","LONGITUDE":116.678535094,"POSTCODE":6608,"STATE_CODE":"WA"},{"LATITUDE":-30.7520729573,"LOCALITY_NAME":"WILGOYNE","LONGITUDE":118.3614185259,"POSTCODE":6479,"STATE_CODE":"WA"},{"LATITUDE":-33.1869229029,"LOCALITY_NAME":"WELLESLEY","LONGITUDE":115.7597196911,"POSTCODE":6233,"STATE_CODE":"WA"},{"LATITUDE":-31.7280563084,"LOCALITY_NAME":"WARDING EAST","LONGITUDE":117.0591479288,"POSTCODE":6405,"STATE_CODE":"WA"},{"LATITUDE":-31.7901247751,"LOCALITY_NAME":"WILBERFORCE","LONGITUDE":116.70383074,"POSTCODE":6302,"STATE_CODE":"WA"},{"LATITUDE":-31.8475536755,"LOCALITY_NAME":"INKPEN","LONGITUDE":116.5692350405,"POSTCODE":6302,"STATE_CODE":"WA"},{"LATITUDE":-29.525244163,"LOCALITY_NAME":"ARROWSMITH","LONGITUDE":115.0802456415,"POSTCODE":6525,"STATE_CODE":"WA"},{"LATITUDE":-33.9458554598,"LOCALITY_NAME":"MARANUP","LONGITUDE":116.0309256416,"POSTCODE":6256,"STATE_CODE":"WA"},{"LATITUDE":-33.5885800888,"LOCALITY_NAME":"NOGGERUP","LONGITUDE":116.16560314,"POSTCODE":6225,"STATE_CODE":"WA"},{"LATITUDE":-33.8181392828,"LOCALITY_NAME":"BENJINUP","LONGITUDE":116.2989040535,"POSTCODE":6255,"STATE_CODE":"WA"},{"LATITUDE":-31.7107254285,"LOCALITY_NAME":"MARIGINIUP","LONGITUDE":115.8340031133,"POSTCODE":6078,"STATE_CODE":"WA"},{"LATITUDE":-24.8763824478,"LOCALITY_NAME":"MORGANTOWN","LONGITUDE":113.6607612433,"POSTCODE":6701,"STATE_CODE":"WA"},{"LATITUDE":-34.3489379075,"LOCALITY_NAME":"FRANKLAND RIVER","LONGITUDE":117.0319915712,"POSTCODE":6396,"STATE_CODE":"WA"},{"LATITUDE":-30.9689225667,"LOCALITY_NAME":"NILGEN","LONGITUDE":115.3941544184,"POSTCODE":6044,"STATE_CODE":"WA"},{"LATITUDE":-31.051041484,"LOCALITY_NAME":"KARAKIN","LONGITUDE":115.4063097605,"POSTCODE":6044,"STATE_CODE":"WA"},{"LATITUDE":-30.7800392077,"LOCALITY_NAME":"WEST KALGOORLIE","LONGITUDE":121.4354137202,"POSTCODE":6430,"STATE_CODE":"WA"},{"LATITUDE":-34.6104261528,"LOCALITY_NAME":"FOREST HILL","LONGITUDE":117.4390266028,"POSTCODE":6324,"STATE_CODE":"WA"},{"LATITUDE":-33.9982489064,"LOCALITY_NAME":"ROSA GLEN","LONGITUDE":115.1995551744,"POSTCODE":6285,"STATE_CODE":"WA"},{"LATITUDE":-33.5423259025,"LOCALITY_NAME":"ARGYLE","LONGITUDE":115.7713130013,"POSTCODE":6239,"STATE_CODE":"WA"},{"LATITUDE":-34.1610961587,"LOCALITY_NAME":"ALEXANDRA BRIDGE","LONGITUDE":115.1962641206,"POSTCODE":6288,"STATE_CODE":"WA"},{"LATITUDE":-33.8431570889,"LOCALITY_NAME":"SOUTHAMPTON","LONGITUDE":115.9626681156,"POSTCODE":6253,"STATE_CODE":"WA"},{"LATITUDE":-32.0699327129,"LOCALITY_NAME":"SAMSON","LONGITUDE":115.798491323,"POSTCODE":6163,"STATE_CODE":"WA"},{"LATITUDE":-24.8785086228,"LOCALITY_NAME":"BROCKMAN","LONGITUDE":113.6527283976,"POSTCODE":6701,"STATE_CODE":"WA"},{"LATITUDE":-31.3861586642,"LOCALITY_NAME":"BINDOON","LONGITUDE":116.085451738,"POSTCODE":6502,"STATE_CODE":"WA"},{"LATITUDE":-30.7255060211,"LOCALITY_NAME":"HANNANS","LONGITUDE":121.4546702642,"POSTCODE":6430,"STATE_CODE":"WA"},{"LATITUDE":-31.2137132588,"LOCALITY_NAME":"BOONANARRING","LONGITUDE":115.849408438,"POSTCODE":6503,"STATE_CODE":"WA"},{"LATITUDE":-31.3224750518,"LOCALITY_NAME":"GRANVILLE","LONGITUDE":115.8652493011,"POSTCODE":6503,"STATE_CODE":"WA"},{"LATITUDE":-28.7832771051,"LOCALITY_NAME":"UTAKARRA","LONGITUDE":114.6454465502,"POSTCODE":6530,"STATE_CODE":"WA"},{"LATITUDE":-28.4430484539,"LOCALITY_NAME":"ISSEKA","LONGITUDE":114.6479832985,"POSTCODE":6535,"STATE_CODE":"WA"},{"LATITUDE":-34.3769867759,"LOCALITY_NAME":"UPPER WARREN","LONGITUDE":116.2831463237,"POSTCODE":6258,"STATE_CODE":"WA"},{"LATITUDE":-31.4817199967,"LOCALITY_NAME":"WIDGIEMOOLTHA","LONGITUDE":121.6672915222,"POSTCODE":6443,"STATE_CODE":"WA"},{"LATITUDE":-33.7118079647,"LOCALITY_NAME":"KIRUP","LONGITUDE":115.8936757536,"POSTCODE":6251,"STATE_CODE":"WA"},{"LATITUDE":-33.356946351,"LOCALITY_NAME":"PICTON EAST","LONGITUDE":115.7247324396,"POSTCODE":6229,"STATE_CODE":"WA"},